{"type":"FeatureCollection","features":[
{"type":"Feature","geometry":{"type":"Point","coordinates":[-3.8489042,55.731118]},"properties":{"name":"Carluke","train":"yes","network":"National Rail","railway":"station","ref:crs":"CLU","operator":"ScotRail","wikidata":"Q1961509","wikipedia":"en:Carluke railway station","naptan:AtcoCode":"9100CRLK","public_transport":"station"}},
{"type":"Feature","geometry":{"type":"Point","coordinates":[-4.1331949,55.8188416]},"properties":{"name":"Newton","train":"yes","source":"npe","network":"National Rail","railway":"station","ref:crs":"NTN","operator":"ScotRail","wikidata":"Q2725598","wikipedia":"en:Newton railway station","naptan:AtcoCode":"9100NWTL","public_transport":"station"}},
{"type":"Feature","geometry":{"type":"Point","coordinates":[-3.0147883,55.9404591]},"properties":{"addr:street":"The Loan","name":"Wallyford","naptan:AtcoCode":"9100WALLYFD","network":"National Rail","operator":"ScotRail","public_transport":"station","railway":"station","ref:crs":"WAF","wikidata":"Q2880755","wikipedia":"en:Wallyford railway station"}},
{"type":"Feature","geometry":{"type":"Point","coordinates":[-2.8886468,55.9762365]},"properties":{"name":"Longniddry","network":"National Rail","railway":"station","ref:crs":"LND","operator":"ScotRail","wikidata":"Q2182720","wikipedia":"en:Longniddry railway station","naptan:AtcoCode":"9100LNGNDRY"}},
{"type":"Feature","geometry":{"type":"Point","coordinates":[-2.7853021,56.0051337]},"properties":{"name":"Drem","naptan:AtcoCode":"9100DREMJ","network":"National Rail","operator":"ScotRail","public_transport":"station","railway":"station","ref:crs":"DRM","wikidata":"Q2164645","wikipedia":"en:Drem railway station"}},
{"type":"Feature","geometry":{"type":"Point","coordinates":[-2.5137076,55.9981923]},"properties":{"name":"Dunbar","train":"yes","network":"National Rail","railway":"station","ref:crs":"DUN","operator":"ScotRail","wikidata":"Q5257092","wikipedia":"en:Dunbar railway station","naptan:AtcoCode":"9100DUNBAR","public_transport":"station"}},
{"type":"Feature","geometry":{"type":"Point","coordinates":[-4.223209,57.4797553]},"properties":{"internet_access":"wlan","internet_access:fee":"no","name":"Inverness","name:gd":"Inbhir Nis","naptan:AtcoCode":"9100IVRNESS","network":"National Rail","operator":"Network Rail","public_transport":"station","railway":"station","ref:crs":"INV","source":"NPE","train":"yes","wikidata":"Q800959","wikipedia":"en:Inverness railway station"}},
{"type":"Feature","geometry":{"type":"Point","coordinates":[-4.4698593,57.4782792]},"properties":{"name":"Beauly","source":"NPE","name:en":"Beauly","name:gd":"A' Mhanachainn","network":"National Rail","railway":"station","ref:crs":"BEL","operator":"Network Rail","wikidata":"Q2190506","wikipedia":"en:Beauly railway station","naptan:AtcoCode":"9100BEAULY"}},
{"type":"Feature","geometry":{"type":"Point","coordinates":[-2.1927576,57.2056996]},"properties":{"name":"Dyce","source":"NPE","name:gd":"Deis","network":"National Rail","railway":"station","ref:crs":"DYC","operator":"ScotRail","wikidata":"Q2647470","wikipedia":"en:Dyce railway station","naptan:AtcoCode":"9100DYCE"}},
{"type":"Feature","geometry":{"type":"Point","coordinates":[-2.8938545,56.374796]},"properties":{"name":"Leuchars","source":"NPE","network":"National Rail","railway":"station","ref:crs":"LEU","operator":"ScotRail","wikidata":"Q2653290","wikipedia":"en:Leuchars railway station","naptan:AtcoCode":"9100LEUCHRS"}},
{"type":"Feature","geometry":{"type":"Point","coordinates":[-3.0091788,56.3170475]},"properties":{"name":"Cupar","train":"yes","source":"NPE","network":"National Rail","railway":"station","ref:crs":"CUP","operator":"ScotRail","wikidata":"Q1879607","platforms":"2","wikipedia":"en:Cupar railway station","naptan:AtcoCode":"9100CUPAR","public_transport":"station"}},
{"type":"Feature","geometry":{"type":"Point","coordinates":[-3.0523883,56.2951617]},"properties":{"name":"Springfield","source":"NPE","network":"National Rail","railway":"station","ref:crs":"SPF","operator":"ScotRail","wikidata":"Q2254054","wikipedia":"en:Springfield railway station","naptan:AtcoCode":"9100SPFD"}},
{"type":"Feature","geometry":{"type":"Point","coordinates":[-3.1215949,56.2742464]},"properties":{"name":"Ladybank","source":"NPE","network":"National Rail","railway":"station","ref:crs":"LDY","operator":"ScotRail","wikidata":"Q980212","wikipedia":"en:Ladybank railway station","naptan:AtcoCode":"9100LADYBNK"}},
{"type":"Feature","geometry":{"type":"Point","coordinates":[-2.3734439,57.2862939]},"properties":{"name":"Inverurie","source":"NPE","name:gd":"Inbhir Uaraidh","network":"National Rail","railway":"station","ref:crs":"INR","operator":"ScotRail","wikidata":"Q2171269","wikipedia":"en:Inverurie railway station","naptan:AtcoCode":"9100INVURIE"}},
{"type":"Feature","geometry":{"type":"Point","coordinates":[-2.6169182,57.3373738]},"properties":{"name":"Insch","source":"NPE","name:gd":"Innis","network":"National Rail","railway":"station","ref:crs":"INS","operator":"ScotRail","wikidata":"Q2023520","wikipedia":"en:Insch railway station","naptan:AtcoCode":"9100INSCH"}},
{"type":"Feature","geometry":{"type":"Point","coordinates":[-2.7757846,57.4444916]},"properties":{"name":"Huntly","name:gd":"Hunndaidh","naptan:AtcoCode":"9100HNTL","network":"National Rail","operator":"ScotRail","railway":"station","ref:crs":"HNT","source":"NPE","wikidata":"Q2432464","wikipedia":"en:Huntly railway station"}},
{"type":"Feature","geometry":{"type":"Point","coordinates":[-2.9540197,57.551499]},"properties":{"name":"Keith","source":"http://en.wikipedia.org/wiki/Aberdeen_to_Inverness_Line","name:gd":"Baile Chè","network":"National Rail","railway":"station","ref:crs":"KEH","operator":"ScotRail","wikidata":"Q1961219","wikipedia":"en:Keith railway station","naptan:AtcoCode":"9100KEITH","public_transport":"station"}},
{"type":"Feature","geometry":{"type":"Point","coordinates":[-3.307788,55.927551]},"properties":{"name":"Edinburgh Park","is_in":"Edinburgh, Scotland, UK","source":"Yahoo Tracing","network":"National Rail","railway":"station","ref:crs":"EDP","operator":"ScotRail","wikidata":"Q5008328","wikipedia":"en:Edinburgh Park railway station","wheelchair":"yes","naptan:AtcoCode":"9100EDINPRK"}},
{"type":"Feature","geometry":{"type":"Point","coordinates":[-3.0906951,55.9329756]},"properties":{"name":"Newcraighall","train":"yes","name:gd":"Talla na Creige Nuadh","network":"National Rail","railway":"station","ref:crs":"NEW","operator":"ScotRail","wikidata":"Q2669021","wikipedia":"en:Newcraighall railway station","naptan:AtcoCode":"9100NCRAGHA","public_transport":"station"}},
{"type":"Feature","geometry":{"type":"Point","coordinates":[-4.6897401,55.9333809]},"properties":{"name":"Port Glasgow","train":"yes","network":"National Rail","railway":"station","ref:crs":"PTG","operator":"ScotRail","wikidata":"Q2749824","wikipedia":"en:Port Glasgow railway station","source:name":"local knowledge","naptan:AtcoCode":"9100PTGLSGW","public_transport":"station"}},
{"type":"Feature","geometry":{"type":"Point","coordinates":[-4.8034053,55.9405305]},"properties":{"name":"Branchton","network":"National Rail","railway":"station","ref:crs":"BCN","operator":"ScotRail","wikidata":"Q4956451","wikipedia":"en:Branchton railway station","naptan:AtcoCode":"9100BRNCHTN"}},
{"type":"Feature","geometry":{"type":"Point","coordinates":[-4.4244819,55.8474765]},"properties":{"name":"Paisley Gilmour Street","train":"yes","network":"National Rail","railway":"station","ref:crs":"PYG","operator":"ScotRail","wikidata":"Q2549824","wikipedia":"en:Paisley Gilmour Street railway station","source:name":"local knowledge","naptan:AtcoCode":"9100PSLYGST","public_transport":"station"}},
{"type":"Feature","geometry":{"type":"Point","coordinates":[-4.3402568,55.852782]},"properties":{"name":"Cardonald","train":"yes","name:gd":"Cair Dhòmhnaill","network":"National Rail","railway":"station","ref:crs":"CDO","operator":"ScotRail","wikidata":"Q2162235","wikipedia":"en:Cardonald railway station","naptan:AtcoCode":"9100CDNL","public_transport":"station"}},
{"type":"Feature","geometry":{"type":"Point","coordinates":[-4.5005021,55.9020934]},"properties":{"name":"Bishopton","train":"yes","network":"National Rail","railway":"station","ref:crs":"BPT","operator":"ScotRail","wikidata":"Q3076007","wikipedia":"en:Bishopton railway station","naptan:AtcoCode":"9100BISHPTN","public_transport":"station"}},
{"type":"Feature","geometry":{"type":"Point","coordinates":[-3.098527,58.4417398]},"properties":{"name":"Wick","name:gd":"Inbhir Ùige","naptan:AtcoCode":"9100WICK","network":"National Rail","operator":"Network Rail","public_transport":"station","railway":"station","ref:crs":"WCK","ref:nlc":"868000","ref:stanox":"01005","ref:tiploc":"WICK","source":"NPE","uic_ref":"7086801","wikidata":"Q2784062","wikipedia":"en:Wick railway station"}},
{"type":"Feature","geometry":{"type":"Point","coordinates":[-3.4518611,58.513451]},"properties":{"name":"Georgemas Junction","naptan:AtcoCode":"9100GRGMASJ","network":"National Rail","operator":"Network Rail","railway":"station","ref:crs":"GGJ","ref:nlc":"864100","ref:stanox":"01008","ref:tiploc":"GRGMASJ","source":"NPE","uic_ref":"7086410","wikidata":"Q2560752","wikipedia":"en:Georgemas Junction railway station"}},
{"type":"Feature","geometry":{"type":"Point","coordinates":[-3.527705,58.590188499999999]},"properties":{"name":"Thurso","name:gd":"Inbhir Theòrsa","naptan:AtcoCode":"9100THURSO","network":"National Rail","operator":"Network Rail","railway":"station","ref:crs":"THS","ref:nlc":"867700","ref:stanox":"01001","ref:tiploc":"THURSO","source":"NPE","uic_ref":"7086770","wikidata":"Q2551015","wikipedia":"en:Thurso railway station"}},
{"type":"Feature","geometry":{"type":"Point","coordinates":[-3.7061485,58.3881251]},"properties":{"name":"Altnabreac","source":"NPE","name:gd":"Allt nam Breac","network":"National Rail","railway":"station","ref:crs":"ABC","ref:nlc":"860600","uic_ref":"7086060","operator":"Network Rail","wikidata":"Q3094412","wikipedia":"en:Altnabreac railway station","ref:stanox":"01010","ref:tiploc":"ALTNBRC","source:ref":"ATOC","request_stop":"yes","naptan:AtcoCode":"9100ALTNBRC"}},
{"type":"Feature","geometry":{"type":"Point","coordinates":[-3.367249,56.0422731]},"properties":{"name":"Dalgety Bay","naptan:AtcoCode":"9100DALGETY","network":"National Rail","operator":"ScotRail","railway":"station","ref:crs":"DAG","wheelchair":"yes","wikipedia":"en:Dalgety Bay railway station"}},
{"type":"Feature","geometry":{"type":"Point","coordinates":[-3.3009757,56.0547554]},"properties":{"name":"Aberdour","naptan:AtcoCode":"9100ABDO","network":"National Rail","operator":"ScotRail","railway":"station","ref:crs":"AUR","uic_ref":"7000018","wheelchair":"yes","wikipedia":"en:Aberdour railway station"}},
{"type":"Feature","geometry":{"type":"Point","coordinates":[-3.2338286,56.0573493]},"properties":{"name":"Burntisland","naptan:AtcoCode":"9100BISLND","network":"National Rail","operator":"ScotRail","public_transport":"station","railway":"station","ref:crs":"BTS","source":"NPE","train":"yes","wheelchair":"limited","wikidata":"Q2099320","wikipedia":"en:Burntisland railway station"}},
{"type":"Feature","geometry":{"type":"Point","coordinates":[-3.174487,56.0690914]},"properties":{"name":"Kinghorn","naptan:AtcoCode":"9100KGHN","network":"National Rail","operator":"ScotRail","public_transport":"station","railway":"station","ref:crs":"KGH","train":"yes","wheelchair":"limited","wikidata":"Q1985428","wikipedia":"en:Kinghorn railway station"}},
{"type":"Feature","geometry":{"type":"Point","coordinates":[-3.1429347,56.162291]},"properties":{"name":"Glenrothes with Thornton","naptan:AtcoCode":"9100GLNRTHS","network":"National Rail","operator":"ScotRail","public_transport":"station","railway":"station","ref:crs":"GLT","wikidata":"Q1971591","wikipedia":"en:Glenrothes with Thornton railway station"}},
{"type":"Feature","geometry":{"type":"Point","coordinates":[-3.2609812,56.141062]},"properties":{"name":"Cardenden","naptan:AtcoCode":"9100CDND","network":"National Rail","operator":"ScotRail","public_transport":"station","railway":"station","ref:crs":"CDD","source":"NPE","train":"yes","wikidata":"Q2044752","wikipedia":"en:Cardenden railway station"}},
{"type":"Feature","geometry":{"type":"Point","coordinates":[-3.3134751,56.1348998]},"properties":{"internet_access":"no","name":"Lochgelly","naptan:AtcoCode":"9100LCHGLLY","network":"National Rail","operator":"ScotRail","public_transport":"station","railway":"station","ref:crs":"LCG","source":"NPE","train":"yes","wikidata":"Q5145648","wikipedia":"en:Lochgelly railway station"}},
{"type":"Feature","geometry":{"type":"Point","coordinates":[-3.3432863,56.1116531]},"properties":{"name":"Cowdenbeath","naptan:AtcoCode":"9100CWDNBTH","network":"National Rail","operator":"ScotRail","public_transport":"station","railway":"station","ref:crs":"COW","source":"NPE","train":"yes","wikidata":"Q2677829","wikipedia":"en:Cowdenbeath railway station"}},
{"type":"Feature","geometry":{"type":"Point","coordinates":[-3.4217706,56.0801657]},"properties":{"name":"Dunfermline Queen Margaret","naptan:AtcoCode":"9100DNFRMQM","network":"National Rail","operator":"ScotRail","public_transport":"station","railway":"station","ref:crs":"DFL","train":"yes","wheelchair":"yes","wikidata":"Q2675988","wikipedia":"en:Dunfermline Queen Margaret railway station"}},
{"type":"Feature","geometry":{"type":"Point","coordinates":[-3.4523618,56.0681116]},"properties":{"name":"Dunfermline Town","naptan:AtcoCode":"9100DNFRMLE","network":"National Rail","operator":"ScotRail","public_transport":"station","railway":"station","ref:crs":"DFE","source":"NPE","train":"yes","wheelchair":"yes","wikidata":"Q3229950","wikipedia":"en:Dunfermline Town railway station"}},
{"type":"Feature","geometry":{"type":"Point","coordinates":[-3.4262346,56.0453624]},"properties":{"name":"Rosyth","naptan:AtcoCode":"9100ROSYTH","network":"National Rail","operator":"ScotRail","public_transport":"station","railway":"station","ref:crs":"ROS","source":"NPE","train":"yes","wikidata":"Q2218049","wikipedia":"en:Rosyth railway station"}},
{"type":"Feature","geometry":{"type":"Point","coordinates":[-4.4601574,57.5175184]},"properties":{"name":"Muir of Ord","name:gd":"Am Blàr Dubh","naptan:AtcoCode":"9100MUROORD","network":"National Rail","operator":"Network Rail","public_transport":"stop_position","railway":"station","ref:crs":"MOO","source":"NPE","train":"yes","wikidata":"Q2201073","wikipedia":"en:Muir of Ord railway station"}},
{"type":"Feature","geometry":{"type":"Point","coordinates":[-4.4222663,57.5940372]},"properties":{"name":"Dingwall","name:gd":"Inbhir Pheofharain","naptan:AtcoCode":"9100DINGWAL","network":"National Rail","operator":"Network Rail","public_transport":"stop_position","railway":"station","ref:crs":"DIN","ref:nlc":"863200","ref:stanox":"01091","ref:tiploc":"DINGWAL","source":"NPE","train":"yes","uic_ref":"7086320","wikidata":"Q2290669","wikipedia":"en:Dingwall railway station"}},
{"type":"Feature","geometry":{"type":"Point","coordinates":[-4.2499451,57.6944251]},"properties":{"name":"Alness","source":"NPE","name:en":"Alness","name:gd":"Alanais","network":"National Rail","railway":"station","ref:crs":"ASS","operator":"Network Rail","wikidata":"Q2635560","wikipedia":"en:Alness railway station","naptan:AtcoCode":"9100ALNESS"}},
{"type":"Feature","geometry":{"type":"Point","coordinates":[-4.1747504,57.6890372]},"properties":{"name":"Invergordon","train":"yes","source":"NPE","name:en":"Invergordon","name:gd":"Inbhir Ghòrdain","network":"National Rail","railway":"station","ref:crs":"IGD","ref:nlc":"864800","uic_ref":"7086480","operator":"Network Rail","wikidata":"Q605581","wikipedia":"en:Invergordon railway station","ref:stanox":"01053","ref:tiploc":"IVRGRD","naptan:AtcoCode":"9100IVRGRD","public_transport":"station"}},
{"type":"Feature","geometry":{"type":"Point","coordinates":[-3.9939181,57.7781396]},"properties":{"name":"Fearn","source":"NPE","name:en":"Fearn","name:gd":"Manachainn Rois","network":"National Rail","railway":"station","ref:crs":"FRN","ref:nlc":"863700","uic_ref":"7086370","operator":"Network Rail","wikidata":"Q2243538","wikipedia":"en:Fearn railway station","ref:stanox":"01047","ref:tiploc":"FEARN","naptan:AtcoCode":"9100FEARN"}},
{"type":"Feature","geometry":{"type":"Point","coordinates":[-4.0519181,57.814425]},"properties":{"name":"Tain","source":"NPE","name:en":"Tain","name:gd":"Baile Dhubhthaich","network":"National Rail","railway":"station","ref:crs":"TAI","ref:nlc":"867600","uic_ref":"7086760","operator":"Network Rail","wikidata":"Q2498057","wikipedia":"en:Tain railway station","ref:stanox":"01044","ref:tiploc":"TAIN","naptan:AtcoCode":"9100TAIN"}},
{"type":"Feature","geometry":{"type":"Point","coordinates":[-4.3618883,57.8812845]},"properties":{"name":"Ardgay","name:en":"Ardgay","name:gd":"Àird Gaoith","network":"National Rail","railway":"station","ref:crs":"ARD","ref:nlc":"861300","uic_ref":"7086130","old_name":"Bonar Bridge","operator":"Network Rail","wikidata":"Q3400257","platforms":"2","wikipedia":"en:Ardgay railway station","ref:tiploc":"ARDGAY","start_date":"1874","naptan:AtcoCode":"9100ARDGAY"}},
{"type":"Feature","geometry":{"type":"Point","coordinates":[-4.3999902,58.0017137]},"properties":{"name":"Lairg","source":"NPE","name:en":"Lairg","name:gd":"Luirg","network":"National Rail","railway":"station","ref:crs":"LRG","ref:nlc":"865800","uic_ref":"7086580","operator":"Network Rail","wikidata":"Q2223691","wikipedia":"en:Lairg railway station","ref:stanox":"01031","ref:tiploc":"LAIRG","naptan:AtcoCode":"9100LAIRG"}},
{"type":"Feature","geometry":{"type":"Point","coordinates":[-3.9872148,57.9715206]},"properties":{"name":"Golspie","source":"NPE","name:en":"Golspie","name:gd":"Goillspidh","network":"National Rail","railway":"station","ref:crs":"GOL","ref:nlc":"864300","uic_ref":"7086430","operator":"Network Rail","wikidata":"Q2107999","wikipedia":"en:Golspie railway station","ref:stanox":"01024","ref:tiploc":"GOLSPIE","naptan:AtcoCode":"9100GOLSPIE"}},
{"type":"Feature","geometry":{"type":"Point","coordinates":[-3.9473688,57.9857817]},"properties":{"name":"Dunrobin Castle","source":"NPE","network":"National Rail","railway":"station","ref:crs":"DNO","ref:nlc":"864200","uic_ref":"7086420","operator":"Network Rail","wikidata":"Q2541637","platforms":"1","wikipedia":"en:Dunrobin Castle railway station","ref:stanox":"01023","ref:tiploc":"DNROBIN","source:ref":"ATOC","start_date":"1985-07-30","description":"'Summer only' station; check before you travel","request_stop":"yes","naptan:AtcoCode":"9100DNROBIN"}},
{"type":"Feature","geometry":{"type":"Point","coordinates":[-3.8523567,58.013279]},"properties":{"name":"Brora","source":"NPE","name:en":"Brora","name:gd":"Brùra","network":"National Rail","railway":"station","ref:crs":"BRA","ref:nlc":"861800","uic_ref":"7086180","operator":"Network Rail","wikidata":"Q3362239","wikipedia":"en:Brora railway station","ref:stanox":"01021","ref:tiploc":"BRORA","naptan:AtcoCode":"9100BRORA"}},
{"type":"Feature","geometry":{"type":"Point","coordinates":[-3.6591456,58.1177286]},"properties":{"name":"Helmsdale","source":"NPE","name:en":"Helmsdale","name:gd":"Bun Ilidh","network":"National Rail","railway":"station","ref:crs":"HMS","ref:nlc":"864700","uic_ref":"7086470","operator":"Network Rail","wikidata":"Q2412149","wikipedia":"en:Helmsdale railway station","ref:stanox":"01016","ref:tiploc":"HELMSDL","naptan:AtcoCode":"9100HELMSDL"}},
{"type":"Feature","geometry":{"type":"Point","coordinates":[-4.688418,57.6130934]},"properties":{"name":"Garve","name:en":"Garve","name:gd":"Gairbh","naptan:AtcoCode":"9100GARVE","network":"National Rail","operator":"Network Rail","public_transport":"stop_position","railway":"station","ref:crs":"GVE","source":"NPE","train":"yes","wikidata":"Q3260754","wikipedia":"en:Garve railway station"}},
{"type":"Feature","geometry":{"type":"Point","coordinates":[-5.0723508,57.5792895]},"properties":{"name":"Achnasheen","name:gd":"Achadh na Sìne","naptan:AtcoCode":"9100ACHNSHN","network":"National Rail","operator":"Network Rail","public_transport":"stop_position","railway":"station","ref:crs":"ACN","source":"NPE","train":"yes","uic_ref":"7000023","wikidata":"Q2148366","wikipedia":"en:Achnasheen railway station"}},
{"type":"Feature","geometry":{"type":"Point","coordinates":[-5.5507696,57.3522003]},"properties":{"name":"Stromeferry","name:gd":"Port an t-Sròim","naptan:AtcoCode":"9100STRMFRY","network":"National Rail","operator":"Network Rail","public_transport":"station","railway":"station","ref:crs":"STF","source":"survey","train":"yes","wikidata":"Q2166100","wikipedia":"en:Stromeferry railway station"}},
{"type":"Feature","geometry":{"type":"Point","coordinates":[-5.6658916,57.3335912]},"properties":{"name":"Plockton","name:en":"Plockton","name:gd":"Am Ploc","naptan:AtcoCode":"9100PLOCKTN","network":"National Rail","operator":"Network Rail","public_transport":"station","railway":"station","ref:crs":"PLK","source":"NPE","wikidata":"Q2226574","wikipedia":"en:Plockton railway station"}},
{"type":"Feature","geometry":{"type":"Point","coordinates":[-5.7137486,57.2797764]},"properties":{"name":"Kyle of Lochalsh","name:gd":"Caol Loch Aillse","naptan:AtcoCode":"9100KYLELSH","network":"National Rail","operator":"Network Rail","public_transport":"station","railway":"station","ref:crs":"KYL","source":"NPE","train":"yes","wikidata":"Q2468479","wikipedia":"en:Kyle of Lochalsh railway station"}},
{"type":"Feature","geometry":{"type":"Point","coordinates":[-3.7524586,57.2481303]},"properties":{"name":"Boat of Garten","phone":"+44 1479 810725","train":"yes","usage":"tourism","source":"NPE","railway":"station","website":"https://www.strathspeyrailway.co.uk/","public_transport":"station"}},
{"type":"Feature","geometry":{"type":"Point","coordinates":[-3.6670708,57.2833838]},"properties":{"name":"Broomhill","phone":"+44 1479 810725","public_transport":"station","railway":"station","source":"NPE","usage":"tourism","website":"https://www.strathspeyrailway.co.uk/","wikidata":"Q25346006","wikipedia":"en:Broomhill railway station"}},
{"type":"Feature","geometry":{"type":"Point","coordinates":[-3.8281892,57.2794783]},"properties":{"name":"Carrbridge","source":"NPE","name:gd":"Drochaid Chårr","network":"National Rail","railway":"station","ref:crs":"CAG","operator":"Network Rail","wikidata":"Q2483623","wikipedia":"en:Carrbridge railway station","naptan:AtcoCode":"9100CARRBDG"}},
{"type":"Feature","geometry":{"type":"Point","coordinates":[-3.1310294,57.4580974]},"properties":{"name":"Dufftown","usage":"tourism","source":"NPE","railway":"station","heritage":"yes"}},
{"type":"Feature","geometry":{"type":"Point","coordinates":[-3.011442,57.4964077]},"properties":{"name":"Towiemore","usage":"tourism","source":"NPE","railway":"station","wikidata":"Q68377063","wikipedia":"en:Towiemore Halt railway station","request_stop":"yes","public_transport":"station"}},
{"type":"Feature","geometry":{"type":"Point","coordinates":[-2.9557888,57.5435622]},"properties":{"name":"Keith Town","usage":"tourism","source":"NPE","railway":"station","heritage":"yes","public_transport":"station"}},
{"type":"Feature","geometry":{"type":"Point","coordinates":[-3.3110946,57.6427995]},"properties":{"name":"Elgin","source":"NPE","name:gd":"Eilginn","network":"National Rail","railway":"station","ref:crs":"ELG","operator":"ScotRail","wikidata":"Q2396399","wikipedia":"en:Elgin railway station","wheelchair":"yes","naptan:AtcoCode":"9100ELGIN"}},
{"type":"Feature","geometry":{"type":"Point","coordinates":[-3.7144735,55.9844795]},"properties":{"name":"Polmont","source":"NPE","network":"National Rail","railway":"station","ref:crs":"PMT","operator":"ScotRail","wikidata":"Q2585349","wikipedia":"en:Polmont railway station","wheelchair":"yes","naptan:AtcoCode":"9100POLMONT"}},
{"type":"Feature","geometry":{"type":"Point","coordinates":[-3.5957662,55.9764096]},"properties":{"name":"Linlithgow","naptan:AtcoCode":"9100LNLTHGW","network":"National Rail","operator":"ScotRail","public_transport":"station","railway":"station","ref:crs":"LIN","source":"NPE","train":"yes","wikidata":"Q3244484","wikipedia":"en:Linlithgow railway station"}},
{"type":"Feature","geometry":{"type":"Point","coordinates":[-5.1053126,56.8205581]},"properties":{"name":"Fort William","name:gd":"An Gearasdan","naptan:AtcoCode":"9100FRTWLM","network":"National Rail","operator":"ScotRail","postal_code":"PH33 6TQ","public_transport":"station","railway":"station","ref:crs":"FTW","source":"NPE (adjusted based on http://en.wikipedia.org/wiki/Fort_William_railway_station) and again based on survey","wikidata":"Q2264654","wikipedia":"en:Fort William railway station"}},
{"type":"Feature","geometry":{"type":"Point","coordinates":[-5.0959006,56.8437975]},"properties":{"name":"Banavie","name:gd":"Banbhaidh","naptan:AtcoCode":"9100BANAVIE","network":"National Rail","operator":"ScotRail","postal_code":"PH33 7JF","railway":"station","ref:crs":"BNV","source":"NPE","wikidata":"Q1839037","wikipedia":"en:Banavie railway station"}},
{"type":"Feature","geometry":{"type":"Point","coordinates":[-5.6633405,56.8814441]},"properties":{"name":"Lochailort","name:gd":"Loch Ailleart","naptan:AtcoCode":"9100LCHALRT","network":"National Rail","operator":"ScotRail","railway":"station","ref:crs":"LCL","request_stop":"yes","source":"NPE","wikidata":"Q1871932","wikipedia":"en:Lochailort railway station"}},
{"type":"Feature","geometry":{"type":"Point","coordinates":[-5.2903646,56.8559494]},"properties":{"name":"Locheilside","name:gd":"Taobh Loch Iall","naptan:AtcoCode":"9100LCHESDE","network":"National Rail","operator":"ScotRail","railway":"station","ref:crs":"LCS","request_stop":"yes","source":"NPE","wikidata":"Q2488475","wikipedia":"en:Locheilside railway station"}},
{"type":"Feature","geometry":{"type":"Point","coordinates":[-5.1928904,56.8553623]},"properties":{"name":"Loch Eil Outward Bound","name:gd":"Spòrs A-Muigh Loch Iall","network":"National Rail","railway":"station","ref:crs":"LHE","operator":"ScotRail","wikidata":"Q2065104","wikipedia":"en:Loch Eil Outward Bound railway station","naptan:AtcoCode":"9100LCEILOB"}},
{"type":"Feature","geometry":{"type":"Point","coordinates":[-4.3144927,55.9411821]},"properties":{"name":"Milngavie","name:pronunciation":"mɪlˈɡaɪ ˈɹeɪlˌweɪ ˈsteɪʃən","naptan:AtcoCode":"9100MLGV","network":"National Rail","operator":"ScotRail","railway":"station","ref:crs":"MLN","wikidata":"Q2122717","wikipedia":"en:Milngavie railway station"}},
{"type":"Feature","geometry":{"type":"Point","coordinates":[-4.3198851,55.9203081]},"properties":{"name":"Hillfoot","name:gd":"Bun a' Chnuic","network":"National Rail","railway":"station","ref:crs":"HLF","operator":"ScotRail","wikipedia":"en:Hillfoot railway station","naptan:AtcoCode":"9100HLFT"}},
{"type":"Feature","geometry":{"type":"Point","coordinates":[-4.3323696,55.917006]},"properties":{"name":"Bearsden","network":"National Rail","railway":"station","ref:crs":"BRN","operator":"ScotRail","wikidata":"Q2795645","wikipedia":"en:Bearsden railway station","naptan:AtcoCode":"9100BSDN"}},
{"type":"Feature","geometry":{"type":"Point","coordinates":[-4.6532942,55.9603526]},"properties":{"name":"Cardross","source":"NPE","network":"National Rail","railway":"station","ref:crs":"CDR","operator":"ScotRail","wikidata":"Q5038794","wikipedia":"en:Cardross railway station"}},
{"type":"Feature","geometry":{"type":"Point","coordinates":[-4.7119204,55.9948435]},"properties":{"name":"Craigendoran","network":"National Rail","railway":"station","ref:crs":"CGD","operator":"ScotRail","wikidata":"Q2793953","wikipedia":"en:Craigendoran railway station","naptan:AtcoCode":"9100CRGDRN","public_transport":"station"}},
{"type":"Feature","geometry":{"type":"Point","coordinates":[-3.066305,55.0007556]},"properties":{"name":"Gretna Green","train":"yes","source":"NPE","network":"National Rail","railway":"station","ref:crs":"GEA","operator":"ScotRail","wikidata":"Q1881671","wikipedia":"en:Gretna Green railway station","naptan:AtcoCode":"9100GRETGRN","public_transport":"station"}},
{"type":"Feature","geometry":{"type":"Point","coordinates":[-3.2631739,54.9835762]},"properties":{"name":"Annan","train":"yes","source":"NPE","name:gd":"Anainn","network":"National Rail","railway":"station","ref:crs":"ANN","operator":"ScotRail","wikipedia":"en:Annan railway station","source:name:gd":"survey","naptan:AtcoCode":"9100ANNAN","public_transport":"station"}},
{"type":"Feature","geometry":{"type":"Point","coordinates":[-3.6044331,55.0725769]},"properties":{"name":"Dumfries","train":"yes","source":"NPE","name:gd":"Dùn Phrìs","network":"National Rail","railway":"station","ref:crs":"DMF","operator":"ScotRail","wikidata":"Q597956","wikipedia":"en:Dumfries railway station","source:name:gd":"survey","naptan:AtcoCode":"9100DUMFRES","public_transport":"station"}},
{"type":"Feature","geometry":{"type":"Point","coordinates":[-4.2997826,55.8710725]},"properties":{"historic":"Partick East","name":"Kelvinhall","network":"Glasgow Subway","old_name":"Partick Cross","operator":"SPT","public_transport":"station","railway":"station","station":"subway","subway":"yes","wikidata":"Q1804611","wikipedia":"en:Kelvinhall subway station"}},
{"type":"Feature","geometry":{"type":"Point","coordinates":[-3.9245885,55.3708091]},"properties":{"name":"Sanquhar","train":"yes","source":"NPE","network":"National Rail","railway":"station","ref:crs":"SQH","operator":"ScotRail","wikidata":"Q736849","wikipedia":"en:Sanquhar railway station","wheelchair":"yes","naptan:AtcoCode":"9100SANQHAR","public_transport":"station"}},
{"type":"Feature","geometry":{"type":"Point","coordinates":[-3.998805,55.3874896]},"properties":{"name":"Kirkconnel","train":"yes","source":"NPE","network":"National Rail","railway":"station","ref:crs":"KRK","operator":"ScotRail","wikidata":"Q2042130","wikipedia":"en:Kirkconnel railway station","wheelchair":"no","naptan:AtcoCode":"9100KRKC","public_transport":"station","toilets:wheelchair":"no"}},
{"type":"Feature","geometry":{"type":"Point","coordinates":[-4.1825911,55.4022096]},"properties":{"name":"New Cumnock","train":"yes","source":"NPE","network":"National Rail","railway":"station","ref:crs":"NCK","operator":"ScotRail","wikidata":"Q2538289","wikipedia":"en:New Cumnock railway station","naptan:AtcoCode":"9100NWCMNCK","public_transport":"station"}},
{"type":"Feature","geometry":{"type":"Point","coordinates":[-4.2963142,55.4698824]},"properties":{"name":"Auchinleck","train":"yes","source":"NPE","network":"National Rail","railway":"station","ref:crs":"AUK","operator":"ScotRail","wikidata":"Q2129004","wikipedia":"en:Auchinleck railway station","naptan:AtcoCode":"9100ACHILCK","public_transport":"station"}},
{"type":"Feature","geometry":{"type":"Point","coordinates":[-4.6556212,55.5426655]},"properties":{"name":"Troon","train":"yes","source":"NPE","network":"National Rail","railway":"station","ref:crs":"TRN","operator":"ScotRail","wikidata":"Q2063531","wikipedia":"en:Troon railway station","naptan:AtcoCode":"9100TROON","public_transport":"station"}},
{"type":"Feature","geometry":{"type":"Point","coordinates":[-4.498786,55.6123464]},"properties":{"name":"Kilmarnock","train":"yes","source":"NPE","network":"National Rail","railway":"station","ref:crs":"KMK","operator":"ScotRail","wikidata":"Q2191486","wikipedia":"en:Kilmarnock railway station","naptan:AtcoCode":"9100KILMRNK","public_transport":"station"}},
{"type":"Feature","geometry":{"type":"Point","coordinates":[-4.4931921,55.9310584]},"properties":{"name":"Bowling","train":"yes","network":"National Rail","railway":"station","ref:crs":"BWG","operator":"ScotRail","wikidata":"Q2970429","wikipedia":"en:Bowling railway station","naptan:AtcoCode":"9100BOWLING"}},
{"type":"Feature","geometry":{"type":"Point","coordinates":[-4.7321701,56.004048]},"properties":{"name":"Helensburgh Central","train":"yes","network":"National Rail","railway":"station","ref:crs":"HLC","operator":"ScotRail","wikidata":"Q4302282","wikipedia":"en:Helensburgh Central railway station","postal_code":"G84 7QF","naptan:AtcoCode":"9100HLNSBRC","public_transport":"station"}},
{"type":"Feature","geometry":{"type":"Point","coordinates":[-4.2798542,55.8742507]},"properties":{"name":"Kelvinbridge","subway":"yes","network":"Glasgow Subway","railway":"station","station":"subway","old_name":"Kelvin Bridge","operator":"SPT","wikidata":"Q1804645","wikipedia":"en:Kelvinbridge subway station","public_transport":"station"}},
{"type":"Feature","geometry":{"type":"Point","coordinates":[-4.293281,55.8752091]},"properties":{"name":"Hillhead","subway":"yes","network":"Glasgow Subway","railway":"station","station":"subway","operator":"SPT","wikidata":"Q3269432","addr:city":"Glasgow","wikipedia":"en:Hillhead subway station","wheelchair":"no","addr:street":"Byres Road","description":"Hillhead subway station is a station on the Glasgow Subway, serving the Hillhead area of Glasgow, Scotland. The entrance is located on Byres Road. This station is the nearest to Glasgow Botanic Gardens and the University of Glasgow.","addr:postcode":"G12 8SH","public_transport":"station"}},
{"type":"Feature","geometry":{"type":"Point","coordinates":[-3.8969589,58.3568564]},"properties":{"name":"Forsinard","source":"NPE","name:en":"Forsinard","name:gd":"Fors An-Àird","network":"National Rail","railway":"station","ref:crs":"FRS","ref:nlc":"863900","uic_ref":"7086390","operator":"Network Rail","wikidata":"Q2136732","wikipedia":"en:Forsinard railway station","ref:stanox":"01012","ref:tiploc":"FORSNRD","naptan:AtcoCode":"9100FORSNRD"}},
{"type":"Feature","geometry":{"type":"Point","coordinates":[-4.6157609,55.7871804]},"properties":{"name":"Lochwinnoch","train":"yes","network":"National Rail","railway":"station","ref:crs":"LHW","operator":"ScotRail","wikidata":"Q2689659","wikipedia":"en:Lochwinnoch railway station","naptan:AtcoCode":"9100LCHWNCH","public_transport":"station"}},
{"type":"Feature","geometry":{"type":"Point","coordinates":[-4.9216232,56.8898718]},"properties":{"name":"Spean Bridge","name:gd":"Drochaid an Aonachain","naptan:AtcoCode":"9100SPEANBD","network":"National Rail","operator":"ScotRail","public_transport":"station","railway":"station","ref:crs":"SBR","source":"NPE","wikidata":"Q2696739","wikipedia":"en:Spean Bridge railway station"}},
{"type":"Feature","geometry":{"type":"Point","coordinates":[-4.7316542,55.9420123]},"properties":{"name":"Cartsdyke","train":"yes","network":"National Rail","railway":"station","ref:crs":"CDY","operator":"ScotRail","wikidata":"Q2466928","wikipedia":"en:Cartsdyke railway station","naptan:AtcoCode":"9100CRTSDYK","public_transport":"station"}},
{"type":"Feature","geometry":{"type":"Point","coordinates":[-4.7115603,55.9370818]},"properties":{"name":"Bogston","train":"yes","network":"National Rail","railway":"station","ref:crs":"BGS","operator":"ScotRail","wikidata":"Q607173","wikipedia":"en:Bogston railway station","naptan:AtcoCode":"9100BOGSTON","public_transport":"station"}},
{"type":"Feature","geometry":{"type":"Point","coordinates":[-4.6557539,55.9312843]},"properties":{"name":"Woodhall","network":"National Rail","railway":"station","ref:crs":"WDL","operator":"ScotRail","wikidata":"Q2308844","wikipedia":"en:Woodhall railway station","naptan:AtcoCode":"9100WHHL"}},
{"type":"Feature","geometry":{"type":"Point","coordinates":[-4.5861277,55.9245747]},"properties":{"name":"Langbank","naptan:AtcoCode":"9100LGBK","network":"National Rail","operator":"ScotRail","public_transport":"station","railway":"station","ref:crs":"LGB","train":"yes","wikidata":"Q1818441","wikipedia":"en:Langbank railway station"}},
{"type":"Feature","geometry":{"type":"Point","coordinates":[-4.4424438,55.8521362]},"properties":{"name":"Paisley St James","train":"yes","network":"National Rail","railway":"station","ref:crs":"PYJ","operator":"ScotRail","wikidata":"Q2579633","wikipedia":"en:Paisley St James railway station","naptan:AtcoCode":"9100PSLYSTJ","public_transport":"station"}},
{"type":"Feature","geometry":{"type":"Point","coordinates":[-4.3717086,55.85594]},"properties":{"name":"Hillington West","train":"yes","network":"National Rail","railway":"station","ref:crs":"HLW","operator":"ScotRail","wikidata":"Q2511692","wikipedia":"en:Hillington West railway station","naptan:AtcoCode":"9100HLNGTNW","public_transport":"station"}},
{"type":"Feature","geometry":{"type":"Point","coordinates":[-4.3548565,55.8542549]},"properties":{"name":"Hillington East","train":"yes","network":"National Rail","railway":"station","ref:crs":"HLE","operator":"ScotRail","wikidata":"Q2748339","wikipedia":"en:Hillington East railway station","naptan:AtcoCode":"9100HLNGTNE","public_transport":"station"}},
{"type":"Feature","geometry":{"type":"Point","coordinates":[-4.2245499,55.8568089]},"properties":{"name":"Bellgrove","train":"yes","network":"National Rail","railway":"station","ref:crs":"BLG","operator":"ScotRail","wikidata":"Q2224878","wikipedia":"en:Bellgrove railway station","naptan:AtcoCode":"9100BLGRVE","public_transport":"station"}},
{"type":"Feature","geometry":{"type":"Point","coordinates":[-4.212665,55.8586363]},"properties":{"name":"Duke Street","train":"yes","network":"National Rail","railway":"station","ref:crs":"DST","operator":"ScotRail","wikidata":"Q2208373","wikipedia":"en:Duke Street railway station","naptan:AtcoCode":"9100DUKEST","public_transport":"station"}},
{"type":"Feature","geometry":{"type":"Point","coordinates":[-3.2993662,55.936508]},"properties":{"name":"South Gyle","name:gd":"Gyle a Deas","naptan:AtcoCode":"9100STHGYLE","network":"National Rail","operator":"ScotRail","railway":"station","ref:crs":"SGL","wikidata":"Q1825568","wikipedia":"en:South Gyle railway station"}},
{"type":"Feature","geometry":{"type":"Point","coordinates":[-4.4237871,55.8400956]},"properties":{"name":"Paisley Canal","naptan:AtcoCode":"9100PSLYCAN","network":"National Rail","operator":"ScotRail","public_transport":"station","railway":"station","ref:crs":"PCN","train":"yes","wheelchair":"yes","wikidata":"Q2454734","wikipedia":"en:Paisley Canal railway station"}},
{"type":"Feature","geometry":{"type":"Point","coordinates":[-4.751882,55.9452416]},"properties":{"name":"Greenock Central","train":"yes","network":"National Rail","railway":"station","ref:crs":"GKC","operator":"ScotRail","wikidata":"Q545693","wikipedia":"en:Greenock Central railway station","naptan:AtcoCode":"9100GRENCKC","public_transport":"station"}},
{"type":"Feature","geometry":{"type":"Point","coordinates":[-4.7466578,55.9384654]},"properties":{"name":"Whinhill","train":"yes","network":"National Rail","railway":"station","ref:crs":"WNL","operator":"ScotRail","wikidata":"Q2492489","wikipedia":"en:Whinhill railway station","naptan:AtcoCode":"9100WHINH","public_transport":"station"}},
{"type":"Feature","geometry":{"type":"Point","coordinates":[-4.2506187,55.8576091]},"properties":{"name":"Argyle Street","train":"yes","name:gd":"Sràid Earra-Ghàidheal","network":"National Rail","railway":"station","ref:crs":"AGS","operator":"ScotRail","wikidata":"Q1892512","wikipedia":"en:Argyle Street railway station","naptan:AtcoCode":"9100ARGYLST","public_transport":"station"}},
{"type":"Feature","geometry":{"type":"Point","coordinates":[-4.2701247,55.8597435]},"properties":{"name":"Anderston","train":"yes","network":"National Rail","railway":"station","ref:crs":"AND","operator":"ScotRail","wikidata":"Q2226187","wikipedia":"en:Anderston railway station","naptan:AtcoCode":"9100ANDRSTN","public_transport":"station"}},
{"type":"Feature","geometry":{"type":"Point","coordinates":[-4.2841408,55.8339652]},"properties":{"name":"Crossmyloof","naptan:AtcoCode":"9100CRSMYLF","network":"National Rail","operator":"ScotRail","public_transport":"station","railway":"station","ref:crs":"CMY","train":"yes","wikidata":"Q3044898","wikipedia":"en:Crossmyloof railway station"}},
{"type":"Feature","geometry":{"type":"Point","coordinates":[-4.2924584,55.8292301]},"properties":{"name":"Shawlands","train":"yes","network":"National Rail","railway":"station","ref:crs":"SHL","operator":"ScotRail","wikidata":"Q2261019","wikipedia":"en:Shawlands railway station","naptan:AtcoCode":"9100SHWLNDS","public_transport":"station"}},
{"type":"Feature","geometry":{"type":"Point","coordinates":[-4.2509079,55.7684639]},"properties":{"name":"Thorntonhall","train":"yes","network":"National Rail","railway":"station","ref:crs":"THT","operator":"ScotRail","wikidata":"Q2144407","wikipedia":"en:Thorntonhall railway station","naptan:AtcoCode":"9100THAL","public_transport":"station"}},
{"type":"Feature","geometry":{"type":"Point","coordinates":[-4.2930578,55.8041667]},"properties":{"name":"Giffnock","train":"yes","network":"National Rail","railway":"station","ref:crs":"GFN","operator":"ScotRail","wikidata":"Q2231362","wikipedia":"en:Giffnock railway station","naptan:AtcoCode":"9100GIFNOCK","public_transport":"station"}},
{"type":"Feature","geometry":{"type":"Point","coordinates":[-4.3117213,55.8110635]},"properties":{"name":"Thornliebank","train":"yes","network":"National Rail","railway":"station","ref:crs":"THB","operator":"ScotRail","wikidata":"Q2004756","wikipedia":"en:Thornliebank railway station","naptan:AtcoCode":"9100THLB","public_transport":"station"}},
{"type":"Feature","geometry":{"type":"Point","coordinates":[-4.2899261,55.7939925]},"properties":{"name":"Williamwood","train":"yes","network":"National Rail","railway":"station","ref:crs":"WLM","operator":"ScotRail","wikidata":"Q1890117","wikipedia":"en:Williamwood railway station","naptan:AtcoCode":"9100WMWD","public_transport":"station"}},
{"type":"Feature","geometry":{"type":"Point","coordinates":[-4.2606762,55.8177107]},"properties":{"name":"Cathcart","naptan:AtcoCode":"9100CCRT","network":"National Rail","operator":"ScotRail","public_transport":"station","railway":"station","ref:crs":"CCT","train":"yes","wheelchair":"no","wikidata":"Q2209530","wikipedia":"en:Cathcart railway station"}},
{"type":"Feature","geometry":{"type":"Point","coordinates":[-4.3355525,55.7905357]},"properties":{"name":"Patterton","train":"yes","network":"National Rail","railway":"station","ref:crs":"PTT","operator":"ScotRail","wikidata":"Q2185506","wikipedia":"en:Patterton railway station","naptan:AtcoCode":"9100PATERTN","public_transport":"station"}},
{"type":"Feature","geometry":{"type":"Point","coordinates":[-4.4268943,55.7828699]},"properties":{"name":"Neilston","train":"yes","network":"National Rail","railway":"station","ref:crs":"NEI","operator":"ScotRail","wikidata":"Q2158891","wikipedia":"en:Neilston railway station","naptan:AtcoCode":"9100NEILSTN","public_transport":"station"}},
{"type":"Feature","geometry":{"type":"Point","coordinates":[-4.2888194,55.8376844]},"properties":{"name":"Maxwell Park","train":"yes","source":"npe/landsat","network":"National Rail","railway":"station","ref:crs":"MAX","operator":"ScotRail","wikidata":"Q2482069","wikipedia":"en:Maxwell Park railway station","naptan:AtcoCode":"9100MAXWLPK","public_transport":"station"}},
{"type":"Feature","geometry":{"type":"Point","coordinates":[-4.2759967,55.8377067]},"properties":{"name":"Pollokshields West","train":"yes","source":"npe/landsat","network":"National Rail","railway":"station","ref:crs":"PLW","operator":"ScotRail","wikidata":"Q4697612","wikipedia":"en:Pollokshields West railway station","naptan:AtcoCode":"9100PLKLHDW","public_transport":"station"}},
{"type":"Feature","geometry":{"type":"Point","coordinates":[-4.3648451,55.8423438]},"properties":{"name":"Crookston","train":"yes","network":"National Rail","railway":"station","ref:crs":"CKT","operator":"ScotRail","wikidata":"Q1973110","wikipedia":"en:Crookston railway station","naptan:AtcoCode":"9100CROKSTN","public_transport":"station"}},
{"type":"Feature","geometry":{"type":"Point","coordinates":[-4.3992215,55.8421034]},"properties":{"name":"Hawkhead","train":"yes","network":"National Rail","railway":"station","ref:crs":"HKH","operator":"ScotRail","wikidata":"Q2659628","wikipedia":"en:Hawkhead railway station","naptan:AtcoCode":"9100HWKHEAD","public_transport":"station"}},
{"type":"Feature","geometry":{"type":"Point","coordinates":[-4.2612813,55.8265299]},"properties":{"name":"Mount Florida","train":"yes","network":"National Rail","railway":"station","ref:crs":"MFL","operator":"ScotRail","wikidata":"Q2633187","wikipedia":"en:Mount Florida railway station","naptan:AtcoCode":"9100MTFL","public_transport":"station"}},
{"type":"Feature","geometry":{"type":"Point","coordinates":[-4.3048819,55.854705]},"properties":{"historic":"Copland Road","name":"Ibrox","network":"Glasgow Subway","old_name":"Copland Road","operator":"SPT","public_transport":"station","railway":"station","station":"subway","subway":"yes","wikipedia":"en:Ibrox subway station"}},
{"type":"Feature","geometry":{"type":"Point","coordinates":[-4.3106225,55.8622545]},"properties":{"name":"Govan","network":"Glasgow Subway","operator":"SPT","public_transport":"station","railway":"station","station":"subway","subway":"yes","wikipedia":"en:Govan subway station"}},
{"type":"Feature","geometry":{"type":"Point","coordinates":[-4.2551723,55.8575955]},"properties":{"name":"St Enoch","network":"Glasgow Subway","operator":"SPT","public_transport":"station","railway":"station","station":"subway","subway":"yes","wikipedia":"en:St Enoch subway station"}},
{"type":"Feature","geometry":{"type":"Point","coordinates":[-4.2534299,55.8624235]},"properties":{"name":"Buchanan Street","network":"Glasgow Subway","note":"line runs directly under Buchanan Street; needs station-entrance relation","operator":"SPT","public_transport":"station","railway":"station","station":"subway","subway":"yes","wikidata":"Q3269428","wikipedia":"en:Buchanan Street subway station"}},
{"type":"Feature","geometry":{"type":"Point","coordinates":[-4.2582198,55.8519813]},"properties":{"name":"Bridge Street","network":"Glasgow Subway","operator":"SPT","public_transport":"station","railway":"station","station":"subway","subway":"yes","wikidata":"Q1804679","wikipedia":"en:Bridge Street subway station"}},
{"type":"Feature","geometry":{"type":"Point","coordinates":[-4.2687116,55.8711685]},"properties":{"name":"St George's Cross","network":"Glasgow Subway","operator":"SPT","public_transport":"station","railway":"station","source":"OS Town Plans, Glasgow 1892-1894 (2020-09-04)","station":"subway","subway":"yes","wikidata":"Q3269808","wikipedia":"en:St George's Cross subway station"}},
{"type":"Feature","geometry":{"type":"Point","coordinates":[-4.2881973,55.8504067]},"properties":{"name":"Kinning Park","subway":"yes","network":"Glasgow Subway","railway":"station","station":"subway","operator":"SPT","wikidata":"Q1804696","wikipedia":"en:Kinning Park subway station","public_transport":"station"}},
{"type":"Feature","geometry":{"type":"Point","coordinates":[-4.2656724,55.8497133]},"properties":{"name":"West Street","network":"Glasgow Subway","operator":"SPT","public_transport":"station","railway":"station","station":"subway","subway":"yes","wikidata":"Q1804559","wikipedia":"en:West Street subway station"}},
{"type":"Feature","geometry":{"type":"Point","coordinates":[-4.2752438,55.849824]},"properties":{"name":"Shields Road","network":"Glasgow Subway","note":"line runs directly under Scotland Street; needs station-entrance relation","operator":"SPT","public_transport":"station","railway":"station","station":"subway","subway":"yes","wikidata":"Q7496191","wikipedia":"en:Shields Road subway station"}},
{"type":"Feature","geometry":{"type":"Point","coordinates":[-4.3474296,55.8406803]},"properties":{"name":"Mosspark","train":"yes","network":"National Rail","railway":"station","ref:crs":"MPK","operator":"ScotRail","wikidata":"Q1941822","wikipedia":"en:Mosspark railway station","naptan:AtcoCode":"9100MSSPARK","public_transport":"station"}},
{"type":"Feature","geometry":{"type":"Point","coordinates":[-4.3345213,55.8375398]},"properties":{"name":"Corkerhill","train":"yes","network":"National Rail","railway":"station","ref:crs":"CKH","operator":"ScotRail","wikidata":"Q2408971","wikipedia":"en:Corkerhill railway station","naptan:AtcoCode":"9100CKHL","public_transport":"station"}},
{"type":"Feature","geometry":{"type":"Point","coordinates":[-3.9262069,55.7721801]},"properties":{"name":"Wishaw","train":"yes","network":"National Rail","railway":"station","ref:crs":"WSH","operator":"ScotRail","wikidata":"Q1998970","wikipedia":"en:Wishaw railway station","naptan:AtcoCode":"9100WISHAW","public_transport":"station"}},
{"type":"Feature","geometry":{"type":"Point","coordinates":[-4.0867337,55.8235808]},"properties":{"name":"Uddingston","train":"yes","network":"National Rail","railway":"station","ref:crs":"UDD","operator":"ScotRail","wikidata":"Q2519439","wikipedia":"en:Uddingston railway station","naptan:AtcoCode":"9100UDNGSTN","public_transport":"station"}},
{"type":"Feature","geometry":{"type":"Point","coordinates":[-4.1726153,55.8193533]},"properties":{"name":"Cambuslang","train":"yes","network":"National Rail","railway":"station","ref:crs":"CBL","operator":"ScotRail","wikidata":"Q2282954","wikipedia":"en:Cambuslang railway station","naptan:AtcoCode":"9100CMBSLNG","public_transport":"station"}},
{"type":"Feature","geometry":{"type":"Point","coordinates":[-3.9944314,55.7823984]},"properties":{"name":"Airbles","train":"yes","network":"National Rail","railway":"station","ref:crs":"AIR","operator":"ScotRail","wikipedia":"en:Airbles railway station","naptan:AtcoCode":"9100AIRBLES","public_transport":"station"}},
{"type":"Feature","geometry":{"type":"Point","coordinates":[-4.0552899,55.779188]},"properties":{"name":"Hamilton West","train":"yes","source":"npe","network":"National Rail","railway":"station","ref:crs":"HNW","operator":"ScotRail","wikidata":"Q2722118","addr:city":"Hamilton","wikipedia":"en:Hamilton West railway station","wheelchair":"yes","addr:street":"65 Clydesdale Street","addr:postcode":"ML3 0DD","naptan:AtcoCode":"9100HAMLTNW","public_transport":"station","wheelchair:description":"The station sits down around 5 metres from the street so there's a long ramp that leads down to both platforms. On the Glasgow bound side be aware that this is shared with the car park so keep an eye out for traffic. The ticket office is fully accessible"}},
{"type":"Feature","geometry":{"type":"Point","coordinates":[-4.0868467,55.7972578]},"properties":{"name":"Blantyre","train":"yes","source":"npe","network":"National Rail","railway":"station","ref:crs":"BLT","operator":"ScotRail","wikidata":"Q528532","wikipedia":"en:Blantyre railway station","naptan:AtcoCode":"9100BLANTYR","public_transport":"station"}},
{"type":"Feature","geometry":{"type":"Point","coordinates":[-4.1673243,55.8140136]},"properties":{"name":"Kirkhill","source":"npe","network":"National Rail","railway":"station","ref:crs":"KKH","operator":"ScotRail","wikidata":"Q641964","wikipedia":"en:Kirkhill railway station","naptan:AtcoCode":"9100KRKH"}},
{"type":"Feature","geometry":{"type":"Point","coordinates":[-4.2028332,55.817007]},"properties":{"name":"Burnside","source":"npe","network":"National Rail","railway":"station","ref:crs":"BUI","operator":"ScotRail","wikidata":"Q5000163","wikipedia":"en:Burnside railway station","naptan:AtcoCode":"9100BRSDE"}},
{"type":"Feature","geometry":{"type":"Point","coordinates":[-4.2283132,55.818309]},"properties":{"name":"Croftfoot","source":"npe","network":"National Rail","railway":"station","ref:crs":"CFF","operator":"ScotRail","wikidata":"Q5149191","wikipedia":"en:Croftfoot railway station","naptan:AtcoCode":"9100CFFT"}},
{"type":"Feature","geometry":{"type":"Point","coordinates":[-4.245882,55.819552]},"properties":{"name":"Kings Park","train":"yes","source":"landsat/npe","network":"National Rail","railway":"station","ref:crs":"KGP","operator":"ScotRail","wikidata":"Q2464694","wikipedia":"en:King's Park railway station","naptan:AtcoCode":"9100KGPK","public_transport":"station"}},
{"type":"Feature","geometry":{"type":"Point","coordinates":[-4.5031136,55.8342897]},"properties":{"name":"Johnstone","train":"yes","network":"National Rail","railway":"station","ref:crs":"JHN","operator":"ScotRail","wikidata":"Q2608940","wikipedia":"en:Johnstone railway station","naptan:AtcoCode":"9100JOHNSTN","public_transport":"station"}},
{"type":"Feature","geometry":{"type":"Point","coordinates":[-4.5337762,55.825029]},"properties":{"name":"Milliken Park","train":"yes","network":"National Rail","railway":"station","ref:crs":"MIN","operator":"ScotRail","wikidata":"Q2919624","wikipedia":"en:Milliken Park railway station","naptan:AtcoCode":"9100MILKNPK","public_transport":"station"}},
{"type":"Feature","geometry":{"type":"Point","coordinates":[-4.5625057,55.8105824]},"properties":{"name":"Howwood","train":"yes","source":"npe/landsat","network":"National Rail","railway":"station","ref:crs":"HOZ","operator":"ScotRail","wikidata":"Q2342200","wikipedia":"en:Howwood railway station","naptan:AtcoCode":"9100HOWOOD","public_transport":"station"}},
{"type":"Feature","geometry":{"type":"Point","coordinates":[-4.6747872,55.7390409]},"properties":{"name":"Glengarnock","train":"yes","network":"National Rail","railway":"station","ref:crs":"GLG","operator":"ScotRail","wikidata":"Q2157398","wikipedia":"en:Glengarnock railway station","naptan:AtcoCode":"9100GLGN","public_transport":"station"}},
{"type":"Feature","geometry":{"type":"Point","coordinates":[-4.7111719,55.7060245]},"properties":{"name":"Dalry","train":"yes","source":"npe/landsat","network":"National Rail","railway":"station","ref:crs":"DLY","operator":"ScotRail","wikidata":"Q2419872","wikipedia":"en:Dalry railway station","naptan:AtcoCode":"9100DALRY","public_transport":"station"}},
{"type":"Feature","geometry":{"type":"Point","coordinates":[-4.674835,55.6112334]},"properties":{"name":"Irvine","train":"yes","source":"landsat/npe","name:lt":"Ervinas","network":"National Rail","railway":"station","ref:crs":"IRV","operator":"ScotRail","wikidata":"Q3405347","wikipedia":"en:Irvine railway station","naptan:AtcoCode":"9100IRVN","public_transport":"station"}},
{"type":"Feature","geometry":{"type":"Point","coordinates":[-4.6257451,55.4582413]},"properties":{"name":"Ayr","name:lt":"Eras","naptan:AtcoCode":"9100AYRR","network":"National Rail","operator":"ScotRail","public_transport":"station","railway":"station","ref:crs":"AYR","source":"landsat/npe","train":"yes","wikidata":"Q2633154","wikipedia":"en:Ayr railway station"}},
{"type":"Feature","geometry":{"type":"Point","coordinates":[-4.7501074,55.6342495]},"properties":{"name":"Stevenston","train":"yes","source":"landsat/npe","network":"National Rail","railway":"station","ref:crs":"STV","operator":"ScotRail","wikidata":"Q3207367","wikipedia":"en:Stevenston railway station","naptan:AtcoCode":"9100STVNSTN","public_transport":"station"}},
{"type":"Feature","geometry":{"type":"Point","coordinates":[-4.8005743,55.6411682]},"properties":{"name":"Ardrossan South Beach","train":"yes","source":"landsat/npe","network":"National Rail","railway":"station","ref:crs":"ASB","operator":"ScotRail","wikipedia":"en:Ardrossan South Beach railway station","naptan:AtcoCode":"9100ARDRSSB","public_transport":"station"}},
{"type":"Feature","geometry":{"type":"Point","coordinates":[-4.8125015,55.6398733]},"properties":{"name":"Ardrossan Town","train":"yes","source":"landsat/npe","network":"National Rail","railway":"station","ref:crs":"ADN","operator":"ScotRail","wikipedia":"en:Ardrossan Town railway station","naptan:AtcoCode":"9100ARDRSTN","public_transport":"station"}},
{"type":"Feature","geometry":{"type":"Point","coordinates":[-4.8213008,55.6400083]},"properties":{"name":"Ardrossan Harbour","train":"yes","source":"landsat/npe","network":"National Rail","railway":"station","ref:crs":"ADS","operator":"ScotRail","wikipedia":"en:Ardrossan Harbour railway station","naptan:AtcoCode":"9100ARDRSHB","public_transport":"station"}},
{"type":"Feature","geometry":{"type":"Point","coordinates":[-4.8515256,55.6962333]},"properties":{"name":"West Kilbride","train":"yes","source":"landsat/npe","network":"National Rail","railway":"station","ref:crs":"WKB","operator":"ScotRail","wikidata":"Q7985626","wikipedia":"en:West Kilbride railway station","naptan:AtcoCode":"9100WKILBRD","public_transport":"station"}},
{"type":"Feature","geometry":{"type":"Point","coordinates":[-4.8531164,55.7519642]},"properties":{"name":"Fairlie","train":"yes","source":"landsat/npe","network":"National Rail","railway":"station","ref:crs":"FRL","operator":"ScotRail","wikidata":"Q1902162","wikipedia":"en:Fairlie railway station","naptan:AtcoCode":"9100FAIRLIE","public_transport":"station"}},
{"type":"Feature","geometry":{"type":"Point","coordinates":[-4.8676254,55.7932617]},"properties":{"name":"Largs","naptan:AtcoCode":"9100LARGS","network":"National Rail","operator":"ScotRail","public_transport":"station","railway":"station","ref:crs":"LAR","source":"landsat/npe","train":"yes","wikidata":"Q1840382","wikipedia":"en:Largs railway station"}},
{"type":"Feature","geometry":{"type":"Point","coordinates":[-4.3011492,55.8975029]},"properties":{"name":"Maryhill","train":"yes","source":"npe","network":"National Rail","railway":"station","ref:crs":"MYH","operator":"ScotRail","wikidata":"Q2400468","wikipedia":"en:Maryhill railway station","naptan:AtcoCode":"9100MRYHILL","public_transport":"station"}},
{"type":"Feature","geometry":{"type":"Point","coordinates":[-4.3250707,55.8133351]},"properties":{"name":"Kennishead","train":"yes","source":"npe/landsat","network":"National Rail","railway":"station","ref:crs":"KNS","operator":"ScotRail","wikidata":"Q2582678","wikipedia":"en:Kennishead railway station","naptan:AtcoCode":"9100KENISHD","public_transport":"station"}},
{"type":"Feature","geometry":{"type":"Point","coordinates":[-4.3598341,55.8119018]},"properties":{"name":"Nitshill","train":"yes","source":"npe/landsat","network":"National Rail","railway":"station","ref:crs":"NIT","operator":"ScotRail","wikidata":"Q3012358","wikipedia":"en:Nitshill railway station","naptan:AtcoCode":"9100NITSH","public_transport":"station"}},
{"type":"Feature","geometry":{"type":"Point","coordinates":[-4.3974374,55.803864]},"properties":{"name":"Barrhead","train":"yes","source":"npe/landsat","network":"National Rail","railway":"station","ref:crs":"BRR","operator":"ScotRail","wikidata":"Q1808222","wikipedia":"en:Barrhead railway station","naptan:AtcoCode":"9100BRHD","public_transport":"station"}},
{"type":"Feature","geometry":{"type":"Point","coordinates":[-4.2870344,55.8248084]},"properties":{"name":"Pollokshaws East","train":"yes","source":"npe/landsat","network":"National Rail","railway":"station","ref:crs":"PWE","operator":"ScotRail","wikidata":"Q2766367","wikipedia":"en:Pollokshaws East railway station","wheelchair":"limited","naptan:AtcoCode":"9100PLKSHWE","public_transport":"station"}},
{"type":"Feature","geometry":{"type":"Point","coordinates":[-4.276069,55.8209413]},"properties":{"name":"Langside","train":"yes","source":"npe/landsat","network":"National Rail","railway":"station","ref:crs":"LGS","operator":"ScotRail","wikidata":"Q1815565","wikipedia":"en:Langside railway station","naptan:AtcoCode":"9100LNSD","public_transport":"station"}},
{"type":"Feature","geometry":{"type":"Point","coordinates":[-4.2565978,55.8331586]},"properties":{"name":"Crosshill","train":"yes","network":"National Rail","railway":"station","ref:crs":"COI","operator":"ScotRail","wikidata":"Q3898599","wikipedia":"en:Crosshill railway station","naptan:AtcoCode":"9100CROSSHL","public_transport":"station"}},
{"type":"Feature","geometry":{"type":"Point","coordinates":[-4.2669343,55.8354076]},"properties":{"name":"Queens Park","train":"yes","network":"National Rail","railway":"station","ref:crs":"QPK","operator":"ScotRail","wikidata":"Q3249726","wikipedia":"en:Queens Park railway station (Scotland)","naptan:AtcoCode":"9100QUNPARK","public_transport":"station"}},
{"type":"Feature","geometry":{"type":"Point","coordinates":[-4.5324384,55.7119101]},"properties":{"name":"Dunlop","train":"yes","source":"npe/landsat","network":"National Rail","railway":"station","ref:crs":"DNL","operator":"ScotRail","wikidata":"Q523713","wikipedia":"en:Dunlop railway station","naptan:AtcoCode":"9100DNLP","public_transport":"station"}},
{"type":"Feature","geometry":{"type":"Point","coordinates":[-4.51818,55.6820232]},"properties":{"name":"Stewarton","train":"yes","source":"npe/landsat","network":"National Rail","railway":"station","ref:crs":"STT","operator":"ScotRail","wikidata":"Q2674920","wikipedia":"en:Stewarton railway station","naptan:AtcoCode":"9100STEWRTN","public_transport":"station"}},
{"type":"Feature","geometry":{"type":"Point","coordinates":[-4.5304766,55.6373535]},"properties":{"name":"Kilmaurs","train":"yes","source":"npe/landsat","network":"National Rail","railway":"station","ref:crs":"KLM","operator":"ScotRail","wikidata":"Q1849147","wikipedia":"en:Kilmaurs railway station","naptan:AtcoCode":"9100KLMAURS","public_transport":"station"}},
{"type":"Feature","geometry":{"type":"Point","coordinates":[-4.6858566,55.3545688]},"properties":{"name":"Maybole","naptan:AtcoCode":"9100MAYBOLE","network":"National Rail","operator":"ScotRail","public_transport":"station","railway":"station","ref:crs":"MAY","ref:nlc":"952900","ref:stanme":"MAYBOLE","ref:stanox":"08639","ref:tiploc":"MAYBOLE","source":"npe/landsat","train":"yes","wikidata":"Q1926869","wikipedia":"en:Maybole railway station"}},
{"type":"Feature","geometry":{"type":"Point","coordinates":[-4.848094,55.2462416]},"properties":{"name":"Girvan","naptan:AtcoCode":"9100GIRVAN","network":"National Rail","operator":"ScotRail","public_transport":"station","railway":"station","ref:crs":"GIR","source":"npe/landsat","train":"yes","wikidata":"Q4284591","wikipedia":"en:Girvan railway station"}},
{"type":"Feature","geometry":{"type":"Point","coordinates":[-4.782098,55.0973578]},"properties":{"name":"Barrhill","train":"yes","source":"OS7","network":"National Rail","railway":"station","ref:crs":"BRL","operator":"ScotRail","wikidata":"Q2845001","wikipedia":"en:Barrhill railway station","naptan:AtcoCode":"9100BRRHL","public_transport":"station"}},
{"type":"Feature","geometry":{"type":"Point","coordinates":[-5.024767,54.9092855]},"properties":{"alt_name":"Stranraer Harbour","name":"Stranraer","naptan:AtcoCode":"9100STRNRR","network":"National Rail","operator":"ScotRail","public_transport":"station","railway":"station","ref:crs":"STR","source":"npe/landsat","start_date":"1862-10-01","train":"yes","wikidata":"Q3282831","wikipedia":"en:Stranraer railway station"}},
{"type":"Feature","geometry":{"type":"Point","coordinates":[-4.3010254,55.8448161]},"properties":{"name":"Dumbreck","train":"yes","network":"National Rail","railway":"station","ref:crs":"DUM","operator":"ScotRail","wikidata":"Q2783418","wikipedia":"en:Dumbreck railway station","naptan:AtcoCode":"9100DUMBRCK","public_transport":"station"}},
{"type":"Feature","geometry":{"type":"Point","coordinates":[-4.7676813,55.9471779]},"properties":{"name":"Greenock West","train":"yes","network":"National Rail","railway":"station","ref:crs":"GKW","operator":"ScotRail","wikidata":"Q2914329","wikipedia":"en:Greenock West railway station","naptan:AtcoCode":"9100GRENCKW","public_transport":"station"}},
{"type":"Feature","geometry":{"type":"Point","coordinates":[-4.8726993,55.9060342]},"properties":{"name":"Inverkip","train":"yes","source":"npe/landsat","network":"National Rail","railway":"station","ref:crs":"INP","operator":"ScotRail","wikidata":"Q3934383","wikipedia":"en:Inverkip railway station","naptan:AtcoCode":"9100INVERKP","public_transport":"station"}},
{"type":"Feature","geometry":{"type":"Point","coordinates":[-4.8895197,55.8764028]},"properties":{"name":"Wemyss Bay","train":"yes","source":"landsat/npe","name:gd":"Bàgh nan Uaimhean","network":"National Rail","railway":"station","ref:crs":"WMS","operator":"ScotRail","wikidata":"Q2120161","wikipedia":"en:Wemyss Bay railway station","naptan:AtcoCode":"9100WEMYSSB","public_transport":"station"}},
{"type":"Feature","geometry":{"type":"Point","coordinates":[-4.1326839,55.8404655]},"properties":{"name":"Mount Vernon","train":"yes","source":"npe/landsat","network":"National Rail","railway":"station","ref:crs":"MTV","operator":"ScotRail","wikidata":"Q4470479","wikipedia":"en:Mount Vernon railway station","naptan:AtcoCode":"9100MNTVRNN","public_transport":"station"}},
{"type":"Feature","geometry":{"type":"Point","coordinates":[-4.0737819,55.851311]},"properties":{"name":"Bargeddie","train":"yes","source":"npe/landsat","network":"National Rail","railway":"station","ref:crs":"BGI","operator":"ScotRail","wikidata":"Q1812187","wikipedia":"en:Bargeddie railway station","wheelchair":"yes","naptan:AtcoCode":"9100BRGDDIE","public_transport":"station"}},
{"type":"Feature","geometry":{"type":"Point","coordinates":[-4.1136609,55.8445444]},"properties":{"name":"Baillieston","note":"checked location, and fixed into right place","source":"npe/survey","network":"National Rail","railway":"station","ref:crs":"BIO","operator":"ScotRail","wikidata":"Q1878833","wikipedia":"en:Baillieston railway station","naptan:AtcoCode":"9100BALISTN"}},
{"type":"Feature","geometry":{"type":"Point","coordinates":[-3.9736943,55.8126793]},"properties":{"name":"Holytown","source":"npe/landsat","network":"National Rail","railway":"station","ref:crs":"HLY","operator":"ScotRail","wikidata":"Q2159699","wikipedia":"en:Holytown railway station","naptan:AtcoCode":"9100HOLYTWN"}},
{"type":"Feature","geometry":{"type":"Point","coordinates":[-3.7990785,55.8185654]},"properties":{"name":"Shotts","source":"npe/landsat","network":"National Rail","railway":"station","ref:crs":"SHS","operator":"ScotRail","wikidata":"Q2256624","wikipedia":"en:Shotts railway station","naptan:AtcoCode":"9100SHTT"}},
{"type":"Feature","geometry":{"type":"Point","coordinates":[-3.6063505,55.8434522]},"properties":{"name":"Addiewell","source":"npe/landsat","network":"National Rail","railway":"station","ref:crs":"ADW","operator":"ScotRail","wikipedia":"en:Addiewell railway station","naptan:AtcoCode":"9100ADIEWEL"}},
{"type":"Feature","geometry":{"type":"Point","coordinates":[-3.7192484,55.8224448]},"properties":{"name":"Fauldhouse","source":"npe/landsat","network":"National Rail","railway":"station","ref:crs":"FLD","operator":"ScotRail","wikidata":"Q1998846","wikipedia":"en:Fauldhouse railway station","naptan:AtcoCode":"9100FAULDHS"}},
{"type":"Feature","geometry":{"type":"Point","coordinates":[-3.6675876,55.8274751]},"properties":{"name":"Breich","source":"npe/landsat","network":"National Rail","railway":"station","ref:crs":"BRC","operator":"ScotRail","wikidata":"Q2506070","wikipedia":"en:Breich railway station","naptan:AtcoCode":"9100BREICH"}},
{"type":"Feature","geometry":{"type":"Point","coordinates":[-4.6515111,55.5617509]},"properties":{"name":"Barassie","train":"yes","network":"National Rail","railway":"station","ref:crs":"BSS","operator":"ScotRail","wikidata":"Q2023730","wikipedia":"en:Barassie railway station","naptan:AtcoCode":"9100BARASIE","public_transport":"station"}},
{"type":"Feature","geometry":{"type":"Point","coordinates":[-4.7948912,55.9589704]},"properties":{"name":"Fort Matilda","train":"yes","network":"National Rail","railway":"station","ref:crs":"FTM","operator":"ScotRail","wikidata":"Q5471606","wikipedia":"en:Fort Matilda railway station","naptan:AtcoCode":"9100FRTMTLD","public_transport":"station"}},
{"type":"Feature","geometry":{"type":"Point","coordinates":[-3.6453886,57.1240153]},"properties":{"name":"Ptarmigan Station","usage":"tourism","railway":"station"}},
{"type":"Feature","geometry":{"type":"Point","coordinates":[-3.9657574,56.1858565]},"properties":{"name":"Dunblane","train":"yes","network":"National Rail","railway":"station","ref:crs":"DBL","operator":"ScotRail","wikidata":"Q2319601","wikipedia":"en:Dunblane railway station","naptan:AtcoCode":"9100DUNANE","public_transport":"station"}},
{"type":"Feature","geometry":{"type":"Point","coordinates":[-3.6606053,55.9932981]},"properties":{"name":"Birkhill","train":"yes","usage":"tourism","network":"Bo'ness and Kinneil Railway","railway":"station","operator":"Scottish Railway Preservation Society","public_transport":"station"}},
{"type":"Feature","geometry":{"type":"Point","coordinates":[-4.047769,55.854163]},"properties":{"name":"Kirkwood","train":"yes","network":"National Rail","railway":"station","ref:crs":"KWD","operator":"ScotRail","wikidata":"Q2713470","wikipedia":"en:Kirkwood railway station","wheelchair":"yes","postal_code":"ML5 5","naptan:AtcoCode":"9100KRKWOOD","public_transport":"station"}},
{"type":"Feature","geometry":{"type":"Point","coordinates":[-4.3426047,55.8120434]},"properties":{"name":"Priesthill & Darnley","train":"yes","network":"National Rail","railway":"station","ref:crs":"PTL","operator":"ScotRail","wikidata":"Q7242899","wikipedia":"en:Priesthill & Darnley railway station","naptan:AtcoCode":"9100PHLD","public_transport":"station"}},
{"type":"Feature","geometry":{"type":"Point","coordinates":[-4.2921881,55.8988407]},"properties":{"name":"Summerston","train":"yes","network":"National Rail","railway":"station","ref:crs":"SUM","operator":"ScotRail","wikidata":"Q1934089","wikipedia":"en:Summerston railway station","naptan:AtcoCode":"9100SUMRSTN","public_transport":"station"}},
{"type":"Feature","geometry":{"type":"Point","coordinates":[-4.3104505,55.7902596]},"properties":{"name":"Whitecraigs","train":"yes","network":"National Rail","railway":"station","ref:crs":"WCR","operator":"ScotRail","wikidata":"Q2450424","wikipedia":"en:Whitecraigs railway station","naptan:AtcoCode":"9100WTCR","public_transport":"station"}},
{"type":"Feature","geometry":{"type":"Point","coordinates":[-4.0046108,55.7653766]},"properties":{"name":"Chatelherault","train":"yes","network":"National Rail","railway":"station","ref:crs":"CTE","operator":"ScotRail","wikidata":"Q1902589","wikipedia":"en:Chatelherault railway station","wheelchair":"yes","naptan:AtcoCode":"9100CHTLRT","public_transport":"station"}},
{"type":"Feature","geometry":{"type":"Point","coordinates":[-3.9750227,55.7386059]},"properties":{"name":"Larkhall","train":"yes","network":"National Rail","railway":"station","ref:crs":"LRH","old_name":"Larkhall Central","operator":"ScotRail","wikidata":"Q3241373","wikipedia":"en:Larkhall railway station","wheelchair":"yes","naptan:AtcoCode":"9100LARKHAL","public_transport":"station"}},
{"type":"Feature","geometry":{"type":"Point","coordinates":[-3.5015189,55.8716089]},"properties":{"name":"Livingston South","naptan:AtcoCode":"9100LVNSTNS","network":"National Rail","operator":"ScotRail","public_transport":"station","railway":"station","ref:crs":"LVG","wikidata":"Q4451346","wikipedia":"en:Livingston South railway station"}},
{"type":"Feature","geometry":{"type":"Point","coordinates":[-4.2831967,55.8613947]},"properties":{"name":"Exhibition Centre","train":"yes","network":"National Rail","railway":"station","ref:crs":"EXG","operator":"ScotRail","wikidata":"Q2304376","wikipedia":"en:Exhibition Centre railway station","naptan:AtcoCode":"9100EXHIBTC","public_transport":"station"}},
{"type":"Feature","geometry":{"type":"Point","coordinates":[-3.7309953,56.2749283]},"properties":{"name":"Gleneagles","network":"National Rail","railway":"station","ref:crs":"GLE","operator":"ScotRail","wikidata":"Q2201588","wikipedia":"en:Gleneagles railway station","naptan:AtcoCode":"9100GLNEGLS"}},
{"type":"Feature","geometry":{"type":"Point","coordinates":[-3.0579015,56.4562311]},"properties":{"name":"Invergowrie","name:gd":"Inbhir Ghobhraidh","network":"National Rail","railway":"station","ref:crs":"ING","operator":"ScotRail","wikidata":"Q2442906","wikipedia":"en:Invergowrie railway station","naptan:AtcoCode":"9100INVGWRE"}},
{"type":"Feature","geometry":{"type":"Point","coordinates":[-4.213332,55.8308263]},"properties":{"name":"Rutherglen","train":"yes","name:gd":"An Ruadh-Ghleann","network":"National Rail","railway":"station","ref:crs":"RUT","operator":"ScotRail","wikidata":"Q950714","wikipedia":"en:Rutherglen railway station","naptan:AtcoCode":"9100RTHGLEN","public_transport":"station"}},
{"type":"Feature","geometry":{"type":"Point","coordinates":[-3.6700967,57.1337091]},"properties":{"name":"Base Station","usage":"tourism","railway":"station"}},
{"type":"Feature","geometry":{"type":"Point","coordinates":[-3.6609169,57.1276775]},"properties":{"name":"Sheiling / Middle","usage":"tourism","railway":"station","request_stop":"yes"}},
{"type":"Feature","geometry":{"type":"Point","coordinates":[-2.6526732,56.7316278]},"properties":{"name":"Brechin","train":"yes","usage":"tourism","railway":"station","public_transport":"station"}},
{"type":"Feature","geometry":{"type":"Point","coordinates":[-2.5508946,56.7185086]},"properties":{"name":"Bridge of Dun","train":"yes","usage":"tourism","railway":"station","public_transport":"station"}},
{"type":"Feature","geometry":{"type":"Point","coordinates":[-6.7875504,55.1653233]},"properties":{"addr:city":"Castlerock","addr:street":"Sea Road","name":"Castlerock","operator":"Translink NI Railways","public_transport":"station","railway":"station","wikidata":"Q588868","wikipedia":"en:Castlerock railway station"}},
{"type":"Feature","geometry":{"type":"Point","coordinates":[-6.513833,55.0665343]},"properties":{"addr:city":"Ballymoney","addr:postcode":"BT53 6JR","addr:street":"Seymour Street","internet_access:fee":"no","name":"Ballymoney","operator":"Translink NI Railways","public_transport":"station","railway":"station","train":"yes","wikidata":"Q3968962"}},
{"type":"Feature","geometry":{"type":"Point","coordinates":[-6.284667,54.8641017]},"properties":{"name":"Ballymena","railway":"station","operator":"Translink NI Railways","wikidata":"Q3968964","addr:city":"Ballymena","addr:street":"Galgorm Road","addr:postcode":"BT42 1AD","public_transport":"station"}},
{"type":"Feature","geometry":{"type":"Point","coordinates":[-4.6141614,55.5090011]},"properties":{"name":"Prestwick International Airport","naptan:AtcoCode":"9100PWCKAPT","network":"National Rail","operator":"Glasgow Prestwick Airport","public_transport":"station","railway":"station","ref:crs":"PRA","train":"yes","wikidata":"Q2188909","wikipedia":"en:Prestwick International Airport railway station"}},
{"type":"Feature","geometry":{"type":"Point","coordinates":[-4.2384783,57.4606137]},"properties":{"usage":"tourism","railway":"station","station":"miniature","miniature":"yes"}},
{"type":"Feature","geometry":{"type":"Point","coordinates":[-4.2690794,55.8407606]},"properties":{"name":"Pollokshields East","train":"yes","network":"National Rail","railway":"station","ref:crs":"PLE","operator":"ScotRail","wikidata":"Q2144734","wikipedia":"en:Pollokshields East railway station","naptan:AtcoCode":"9100PLKLHDE","public_transport":"station"}},
{"type":"Feature","geometry":{"type":"Point","coordinates":[-4.7721639,55.9411705]},"properties":{"name":"Drumfrochar","train":"yes","network":"National Rail","railway":"station","ref:crs":"DFR","operator":"ScotRail","wikidata":"Q2143794","wikipedia":"en:Drumfrochar railway station","naptan:AtcoCode":"9100DRMFCHR","public_transport":"station"}},
{"type":"Feature","geometry":{"type":"Point","coordinates":[-4.0187094,55.8539056]},"properties":{"name":"Whifflet","train":"yes","network":"National Rail","railway":"station","ref:crs":"WFF","operator":"ScotRail","wikidata":"Q2565103","wikipedia":"en:Whifflet railway station","wheelchair":"limited","naptan:AtcoCode":"9100WHIFLET","public_transport":"station"}},
{"type":"Feature","geometry":{"type":"Point","coordinates":[-3.6256241,56.0148224]},"properties":{"name":"Kinneil Halt","usage":"tourism","railway":"station","request_stop":"yes"}},
{"type":"Feature","geometry":{"type":"Point","coordinates":[-3.6004981,56.0179562]},"properties":{"name":"Bo'ness","train":"yes","usage":"tourism","railway":"station","public_transport":"station"}},
{"type":"Feature","geometry":{"type":"Point","coordinates":[-4.6143864,55.5017394]},"properties":{"name":"Prestwick Town","naptan:AtcoCode":"9100PWCK","network":"National Rail","operator":"ScotRail","public_transport":"station","railway":"station","ref:crs":"PTW","train":"yes","wikidata":"Q1923972","wikipedia":"en:Prestwick Town railway station"}},
{"type":"Feature","geometry":{"type":"Point","coordinates":[-6.6535706,55.2028877]},"properties":{"name":"Portrush","railway":"station","operator":"Translink NI Railways","wikidata":"Q3970584","addr:city":"Portrush","wikipedia":"en:Portrush railway station","addr:street":"Eglinton Street","public_transport":"station"}},
{"type":"Feature","geometry":{"type":"Point","coordinates":[-6.661251,55.196255]},"properties":{"name":"Dhu Varren","railway":"station","operator":"Translink NI Railways","wikidata":"Q3969528","wikipedia":"en:Dhu Varren railway station","public_transport":"station"}},
{"type":"Feature","geometry":{"type":"Point","coordinates":[-6.6683656,55.150406]},"properties":{"name":"University","railway":"station","alt_name":"Coleraine University","operator":"Translink NI Railways","wikidata":"Q3971217","addr:city":"Coleraine","wikipedia":"en:University railway station (Northern Ireland)","public_transport":"station"}},
{"type":"Feature","geometry":{"type":"Point","coordinates":[-4.625979,55.4739658]},"properties":{"addr:street":"Falkland Park Road","name":"Newton-on-Ayr","naptan:AtcoCode":"9100NWTOA","network":"National Rail","operator":"ScotRail","public_transport":"station","railway":"station","ref:crs":"NOA","train":"yes","wikidata":"Q2009461","wikipedia":"en:Newton-on-Ayr railway station"}},
{"type":"Feature","geometry":{"type":"Point","coordinates":[-3.0390296,57.4842317]},"properties":{"name":"Drummuir","usage":"tourism","source":"NPE","railway":"station"}},
{"type":"Feature","geometry":{"type":"Point","coordinates":[-2.5640811,55.9995089]},"properties":{"name":"East Links Family Park","usage":"tourism","railway":"station","operator":"East Links Family Park Narrow Gauge Railway"}},
{"type":"Feature","geometry":{"type":"Point","coordinates":[-3.7502961,55.8843985]},"properties":{"name":"Blackridge","name:gd":"An Druìm Dubh","network":"National Rail","railway":"station","ref:crs":"BKR","operator":"ScotRail","wikidata":"Q4923300","wikipedia":"en:Blackridge railway station","ref:tiploc":"BLKRDGE","naptan:AtcoCode":"9100BLKRDGE"}},
{"type":"Feature","geometry":{"type":"Point","coordinates":[-3.0467408,55.8402696]},"properties":{"name":"Gorebridge","train":"yes","network":"National Rail","railway":"station","ref:crs":"GBG","operator":"ScotRail","wikipedia":"en:Gorebridge railway station","start_date":"2015-09-06","naptan:AtcoCode":"9100GOREBRG","public_transport":"station"}},
{"type":"Feature","geometry":{"type":"Point","coordinates":[-4.8166268,55.9620669]},"properties":{"name":"Gourock","train":"yes","network":"National Rail","railway":"station","ref:crs":"GRK","operator":"ScotRail","wikidata":"Q1831055","wikipedia":"en:Gourock railway station","naptan:AtcoCode":"9100GOUROCK","public_transport":"station"}},
{"type":"Feature","geometry":{"type":"Point","coordinates":[-3.7608405,55.4113278]},"properties":{"name":"Leadhills","public_transport":"station","railway":"station","usage":"tourism","wikidata":"Q67181500","wikipedia":"en:Leadhills railway station"}},
{"type":"Feature","geometry":{"type":"Point","coordinates":[-6.3446397,54.8882905]},"properties":{"name":"Cullybackey","railway":"station","operator":"Translink NI Railways","wikidata":"Q3969505","addr:city":"Cullybackey","wikipedia":"en:Cullybackey railway station","wheelchair":"yes","addr:street":"Station Road","public_transport":"station"}},
{"type":"Feature","geometry":{"type":"Point","coordinates":[-6.6626626,55.1339226]},"properties":{"name":"Coleraine","railway":"station","website":"http://www.translink.co.uk/Services/Other-Translink-Services/Park--Ride/Park--Ride-Locations/Coleraine-Park-Ride/","operator":"Translink NI Railways","wikidata":"Q3969452","addr:city":"Coleraine","wikipedia":"en:Coleraine railway station","addr:street":"Railway Place","addr:postcode":"BT52 1PQ","public_transport":"station"}},
{"type":"Feature","geometry":{"type":"Point","coordinates":[-4.2175393,55.8423068]},"properties":{"name":"Dalmarnock","naptan:AtcoCode":"9100DLMRNOK","network":"National Rail","operator":"ScotRail","public_transport":"station","railway":"station","ref:crs":"DAK","train":"yes","wikidata":"Q2174513","wikipedia":"en:Dalmarnock railway station"}},
{"type":"Feature","geometry":{"type":"Point","coordinates":[-4.3963559,55.8487724]},"properties":{"name":"Barshaw Central","railway":"station","usage":"tourism"}},
{"type":"Feature","geometry":{"type":"Point","coordinates":[-4.7845808,55.6338921]},"properties":{"name":"Saltcoats","train":"yes","network":"National Rail","railway":"station","ref:crs":"SLT","operator":"ScotRail","wikidata":"Q2903471","platforms":"2","wikipedia":"en:Saltcoats railway station","naptan:AtcoCode":"9100SLCT","public_transport":"station"}},
{"type":"Feature","geometry":{"type":"Point","coordinates":[-3.0902511,55.9176981]},"properties":{"name":"Shawfair","train":"yes","network":"National Rail","railway":"station","ref:crs":"SFI","operator":"ScotRail","platforms":"2","wikipedia":"en:Shawfair railway station","start_date":"2015-09-06","naptan:AtcoCode":"9100SHWFAIR","public_transport":"station"}},
{"type":"Feature","geometry":{"type":"Point","coordinates":[-3.0828437,55.8812887]},"properties":{"name":"Eskbank","train":"yes","network":"National Rail","railway":"station","ref:crs":"EKB","operator":"ScotRail","wikidata":"Q5398041","wikipedia":"en:Eskbank railway station","start_date":"2015-09-06","naptan:AtcoCode":"9100ESKBANK","public_transport":"station"}},
{"type":"Feature","geometry":{"type":"Point","coordinates":[-3.068938,55.8648238]},"properties":{"name":"Newtongrange","train":"yes","network":"National Rail","railway":"station","ref:crs":"NEG","operator":"ScotRail","wikidata":"Q15262206","wikipedia":"en:Newtongrange railway station","start_date":"2015-09-06","naptan:AtcoCode":"9100NWTGRNG","public_transport":"station"}},
{"type":"Feature","geometry":{"type":"Point","coordinates":[-2.8667745,55.691758]},"properties":{"name":"Stow","train":"yes","network":"National Rail","railway":"station","ref:crs":"SOI","operator":"ScotRail","wikidata":"Q16900766","wikipedia":"en:Stow railway station","start_date":"2015-09-06","naptan:AtcoCode":"9100STOW","public_transport":"station"}},
{"type":"Feature","geometry":{"type":"Point","coordinates":[-4.4403838,57.5616288]},"properties":{"name":"Conon Bridge","train":"yes","name:en":"Conon Bridge","name:gd":"Drochaid Sguideil","network":"National Rail","railway":"station","ref:crs":"CBD","operator":"Network Rail","wikidata":"Q5162154","wikipedia":"en:Conon Bridge railway station","naptan:AtcoCode":"9100CONONBR"}},
{"type":"Feature","geometry":{"type":"Point","coordinates":[-3.6575248,55.9776784]},"properties":{"name":"Manuel","network":"Bo'ness and Kinneil Railway","operator":"Scottish Railway Preservation Society","public_transport":"station","railway":"station","train":"yes","usage":"tourism"}},
{"type":"Feature","geometry":{"type":"Point","coordinates":[-2.9951755,55.8566522]},"properties":{"usage":"tourism","railway":"station"}},
{"type":"Feature","geometry":{"type":"Point","coordinates":[-3.3187372,55.9004886]},"properties":{"name":"Curriehill","name:gd":"Croc Churraich","network":"National Rail","railway":"station","ref:crs":"CUH","operator":"ScotRail","wikidata":"Q2495359","wikipedia":"en:Curriehill railway station","naptan:AtcoCode":"9100CURRIEH"}},
{"type":"Feature","geometry":{"type":"Point","coordinates":[-3.5667913,55.853764]},"properties":{"name":"West Calder","source":"npe/landsat","network":"National Rail","railway":"station","ref:crs":"WCL","operator":"ScotRail","wikidata":"Q3246677","wikipedia":"en:West Calder railway station","naptan:AtcoCode":"9100WCALDER"}},
{"type":"Feature","geometry":{"type":"Point","coordinates":[-3.9107781,55.8044179]},"properties":{"name":"Cleland","source":"npe/landsat","network":"National Rail","railway":"station","ref:crs":"CEA","operator":"ScotRail","wikidata":"Q2163934","wikipedia":"en:Cleland railway station","naptan:AtcoCode":"9100CLELAND"}},
{"type":"Feature","geometry":{"type":"Point","coordinates":[-4.0244393,55.8170309]},"properties":{"name":"Bellshill","train":"yes","network":"National Rail","railway":"station","ref:crs":"BLH","operator":"ScotRail","wikidata":"Q2349644","wikipedia":"en:Bellshill railway station","wheelchair":"yes","naptan:AtcoCode":"9100BLSHL","public_transport":"station"}},
{"type":"Feature","geometry":{"type":"Point","coordinates":[-3.9774372,55.7489261]},"properties":{"name":"Merryton","train":"yes","network":"National Rail","railway":"station","ref:crs":"MEY","operator":"ScotRail","wikidata":"Q2050287","wikipedia":"en:Merryton railway station","wheelchair":"yes","naptan:AtcoCode":"9100MRRYTON","public_transport":"station"}},
{"type":"Feature","geometry":{"type":"Point","coordinates":[-4.1580726,55.8342637]},"properties":{"name":"Carmyle","note":"check location","train":"yes","source":"npe/guess","network":"National Rail","railway":"station","ref:crs":"CML","operator":"ScotRail","wikidata":"Q2709507","wikipedia":"en:Carmyle railway station","naptan:AtcoCode":"9100CARMYLE","public_transport":"station"}},
{"type":"Feature","geometry":{"type":"Point","coordinates":[-4.7095388,55.6561839]},"properties":{"name":"Kilwinning","train":"yes","source":"landsat","network":"National Rail","railway":"station","ref:crs":"KWN","operator":"ScotRail","wikidata":"Q2439622","wikipedia":"en:Kilwinning railway station","naptan:AtcoCode":"9100KILWNNG","public_transport":"station"}},
{"type":"Feature","geometry":{"type":"Point","coordinates":[-4.2244495,55.9039659]},"properties":{"name":"Bishopbriggs","train":"yes","source":"NPE","network":"National Rail","railway":"station","ref:crs":"BBG","operator":"ScotRail","wikidata":"Q1856000","wikipedia":"en:Bishopbriggs railway station","naptan:AtcoCode":"9100BSHB","public_transport":"station"}},
{"type":"Feature","geometry":{"type":"Point","coordinates":[-4.1068764,55.8598389]},"properties":{"name":"Easterhouse","train":"yes","network":"National Rail","railway":"station","ref:crs":"EST","operator":"ScotRail","wikidata":"Q2177083","wikipedia":"en:Easterhouse railway station","naptan:AtcoCode":"9100ESHS","public_transport":"station"}},
{"type":"Feature","geometry":{"type":"Point","coordinates":[-6.518169,55.2311741]},"properties":{"fax":"+44 28 20732844","name":"Giant's Causeway","email":"infogcbr@btconnect.com","phone":"+44 28 20732844","usage":"tourism","railway":"station","website":"https://www.freewebs.com/giantscausewayrailway/","operator":"Giant's Causeway & Bushmills Railway","addr:city":"Bushmills","addr:county":"Antrim","addr:street":"Runkerry Road","addr:postcode":"BT57 8SZ"}},
{"type":"Feature","geometry":{"type":"Point","coordinates":[-6.5298478,55.2075906]},"properties":{"fax":"+44 28 2073 2844","name":"Bushmills","email":"infogcbr@btconnect.com","usage":"tourism","railway":"station","operator":"Giant's Causeway & Bushmills Railway","public_transport":"station"}},
{"type":"Feature","geometry":{"type":"Point","coordinates":[-3.3815031,55.9862498]},"properties":{"layer":"1","name":"Dalmeny","name:gd":"Dun Mheinidh","naptan:AtcoCode":"9100DLMY","network":"National Rail","note":"not Dail Mheinidh - why?","operator":"ScotRail","railway":"station","ref:crs":"DAM","wikidata":"Q5211557","wikipedia":"en:Dalmeny railway station"}},
{"type":"Feature","geometry":{"type":"Point","coordinates":[-3.1308024,56.2004129]},"properties":{"name":"Markinch","train":"yes","source":"NPE","network":"National Rail","railway":"station","ref:crs":"MNC","operator":"ScotRail","wikidata":"Q2572429","addr:city":"Markinch","wikipedia":"en:Markinch railway station","naptan:AtcoCode":"9100MKIN","public_transport":"station"}},
{"type":"Feature","geometry":{"type":"Point","coordinates":[-3.3946556,56.0124476]},"properties":{"name":"North Queensferry","name:gd":"Port na Banrighinn","naptan:AtcoCode":"9100NQNSFRY","network":"National Rail","operator":"ScotRail","railway":"station","ref:crs":"NQU","source":"NPE","wikipedia":"en:North Queensferry railway station"}},
{"type":"Feature","geometry":{"type":"Point","coordinates":[-3.7925193,55.9917417]},"properties":{"name":"Falkirk High","train":"yes","source":"NPE","network":"National Rail","railway":"station","ref:crs":"FKK","operator":"ScotRail","wikidata":"Q2189322","wikipedia":"en:Falkirk High railway station","naptan:AtcoCode":"9100FALKRKH","public_transport":"station"}},
{"type":"Feature","geometry":{"type":"Point","coordinates":[-2.8389784,56.4745408]},"properties":{"name":"Balmossie","source":"local knowledge + http://en.wikipedia.org/wiki/Edinburgh_to_Aberdeen_Line","name:gd":"Baile Mosaidh","network":"National Rail","railway":"station","ref:crs":"BSI","operator":"ScotRail","wikidata":"Q2944519","wikipedia":"en:Balmossie railway station","naptan:AtcoCode":"9100BALMOSS"}},
{"type":"Feature","geometry":{"type":"Point","coordinates":[-2.7460035,56.4931648]},"properties":{"name":"Barry Links","source":"NPE","name:gd":"Machair Bharraidh","network":"National Rail","railway":"station","ref:crs":"BYL","operator":"ScotRail","wikidata":"Q743618","wikipedia":"en:Barry Links railway station","naptan:AtcoCode":"9100BRRYLNK"}},
{"type":"Feature","geometry":{"type":"Point","coordinates":[-2.87399,56.4676374]},"properties":{"name":"Broughty Ferry","name:gd":"Port Bhruachaidh","naptan:AtcoCode":"9100BRFRY","network":"National Rail","operator":"ScotRail","railway":"station","ref:crs":"BYF","short_name":"Ferry","source":"NPE","wikidata":"Q2765820","wikipedia":"en:Broughty Ferry railway station"}},
{"type":"Feature","geometry":{"type":"Point","coordinates":[-2.8183936,56.4797309]},"properties":{"name":"Monifieth","source":"NPE","name:gd":"Monadh Fotha","network":"National Rail","railway":"station","ref:crs":"MON","operator":"ScotRail","wikidata":"Q2425536","wikipedia":"en:Monifieth railway station","naptan:AtcoCode":"9100MONIFTH"}},
{"type":"Feature","geometry":{"type":"Point","coordinates":[-2.4653121,56.8368537]},"properties":{"name":"Laurencekirk","name:gd":"Eaglais Labhrainn","network":"National Rail","railway":"station","ref:crs":"LAU","operator":"ScotRail","wikidata":"Q6500951","wikipedia":"en:Laurencekirk railway station","naptan:AtcoCode":"9100LRNCKRK"}},
{"type":"Feature","geometry":{"type":"Point","coordinates":[-2.1277464,57.0617528]},"properties":{"name":"Portlethen","name:gd":"Port Leathain","naptan:AtcoCode":"9100PLTH","network":"National Rail","operator":"ScotRail","public_transport":"station","railway":"station","ref:crs":"PLN","source":"NPE","train":"yes","wikidata":"Q3400311","wikipedia":"en:Portlethen railway station"}},
{"type":"Feature","geometry":{"type":"Point","coordinates":[-4.9833045,56.4010104]},"properties":{"name":"Dalmally","source":"NPE","name:gd":"Dail Mhàilidh","network":"National Rail","railway":"station","ref:crs":"DAL","operator":"Network Rail","wikidata":"Q2316273","wikipedia":"en:Dalmally railway station","naptan:AtcoCode":"9100DLMALLY"}},
{"type":"Feature","geometry":{"type":"Point","coordinates":[-2.4298868,57.0563229]},"properties":{"name":"Milton of Crathes","public_transport":"station","railway":"station","usage":"tourism","wikidata":"Q6861554","wikipedia":"en:Milton of Crathes railway station"}},
{"type":"Feature","geometry":{"type":"Point","coordinates":[-2.4563457,57.0582227]},"properties":{"name":"Riverside Halt","public_transport":"station","railway":"station","train":"yes","usage":"tourism"}},
{"type":"Feature","geometry":{"type":"Point","coordinates":[-3.7694415,55.4021607]},"properties":{"name":"Glengonnar","usage":"tourism","railway":"station"}},
{"type":"Feature","geometry":{"type":"Point","coordinates":[-2.7589963,55.6058578]},"properties":{"name":"Tweedbank","name:gd":"Bruach Thuaidh","naptan:AtcoCode":"9100TWDBANK","network":"National Rail","operator":"ScotRail","public_transport":"station","railway":"station","ref:crs":"TWB","start_date":"2015-09-06","train":"yes","wikidata":"Q7857482","wikipedia":"en:Tweedbank railway station"}},
{"type":"Feature","geometry":{"type":"Point","coordinates":[-2.8054719,55.6178113]},"properties":{"name":"Galashiels","train":"yes","network":"National Rail","railway":"station","ref:crs":"GAL","operator":"ScotRail","wikipedia":"en:Galashiels railway station","ref:tiploc":"GALASLS","start_date":"2015-09-06","naptan:AtcoCode":"9100GALASLS","public_transport":"station"}},
{"type":"Feature","geometry":{"type":"Point","coordinates":[-2.9709541,56.4566001]},"properties":{"alt_name":"Dundee Railway Station","alt_name:gd":"Dùn Dèagh","name":"Dundee","name:gd":"Dùn Dè","naptan:AtcoCode":"9100DUNDETB","network":"National Rail","operator":"ScotRail","public_transport":"station","railway":"station","ref:crs":"DEE","wheelchair":"yes","wikidata":"Q3096420","wikipedia":"en:Dundee railway station"}},
{"type":"Feature","geometry":{"type":"Point","coordinates":[-3.9943047,55.7916266]},"properties":{"name":"Motherwell","train":"yes","network":"National Rail","railway":"station","ref:crs":"MTH","operator":"ScotRail","wikidata":"Q2161315","wikipedia":"en:Motherwell railway station","wheelchair":"yes","naptan:AtcoCode":"9100MOTHRWL","public_transport":"station"}},
{"type":"Feature","geometry":{"type":"Point","coordinates":[-4.0532894,57.0777785]},"properties":{"name":"Kingussie","source":"NPE","name:gd":"Ceann a' Ghiùthsaich","network":"National Rail","railway":"station","ref:crs":"KIN","operator":"Network Rail","wikidata":"Q3997450","wikipedia":"en:Kingussie railway station","naptan:AtcoCode":"9100KGUSSIE"}},
{"type":"Feature","geometry":{"type":"Point","coordinates":[-3.4335165,55.8889332]},"properties":{"name":"Kirknewton","network":"National Rail","railway":"station","ref:crs":"KKN","operator":"ScotRail","wikidata":"Q2475701","wikipedia":"en:Kirknewton railway station","naptan:AtcoCode":"9100KRKNWTN"}},
{"type":"Feature","geometry":{"type":"Point","coordinates":[-4.2106057,55.8633135]},"properties":{"name":"Alexandra Parade","train":"yes","name:gd":"Pairèid Alexandra","network":"National Rail","railway":"station","ref:crs":"AXP","operator":"ScotRail","wikidata":"Q2371477","wikipedia":"en:Alexandra Parade railway station","naptan:AtcoCode":"9100ALXPD","public_transport":"station"}},
{"type":"Feature","geometry":{"type":"Point","coordinates":[-4.0435338,55.8663831]},"properties":{"name":"Blairhill","source":"gps","network":"National Rail","railway":"station","ref:crs":"BAI","operator":"ScotRail","wikidata":"Q517064","wikipedia":"en:Blairhill railway station","wheelchair":"limited","naptan:AtcoCode":"9100BLAIRHL"}},
{"type":"Feature","geometry":{"type":"Point","coordinates":[-3.9557056,55.8076345]},"properties":{"name":"Carfin","source":"survey","network":"National Rail","railway":"station","ref:crs":"CRF","operator":"ScotRail","wikidata":"Q2714703","wikipedia":"en:Carfin railway station","naptan:AtcoCode":"9100CARFIN"}},
{"type":"Feature","geometry":{"type":"Point","coordinates":[-4.0279569,55.8669052]},"properties":{"name":"Coatbridge Sunnyside","train":"yes","source":"npe/landsat","network":"National Rail","railway":"station","ref:crs":"CBS","operator":"ScotRail","wikidata":"Q1964455","wikipedia":"en:Coatbridge Sunnyside railway station","wheelchair":"yes","naptan:AtcoCode":"9100COATBDS","public_transport":"station"}},
{"type":"Feature","geometry":{"type":"Point","coordinates":[-3.9803047,55.941902]},"properties":{"name":"Cumbernauld","train":"yes","source":"Gps","network":"National Rail","railway":"station","ref:crs":"CUB","operator":"ScotRail","wikidata":"Q2347472","wikipedia":"en:Cumbernauld railway station","naptan:AtcoCode":"9100CMBRNLD","public_transport":"station"}},
{"type":"Feature","geometry":{"type":"Point","coordinates":[-4.0388235,55.7731462]},"properties":{"name":"Hamilton Central","train":"yes","source":"npe","network":"National Rail","railway":"station","ref:crs":"HNC","operator":"ScotRail","wikidata":"Q2672822","wikipedia":"en:Hamilton Central railway station","wheelchair":"yes","naptan:AtcoCode":"9100HAMLTNC","public_transport":"station"}},
{"type":"Feature","geometry":{"type":"Point","coordinates":[-3.8389855,55.8111759]},"properties":{"name":"Hartwood","source":"npe/landsat","network":"National Rail","railway":"station","ref:crs":"HTW","operator":"ScotRail","wikidata":"Q2417054","wikipedia":"en:Hartwood railway station","naptan:AtcoCode":"9100HRTW"}},
{"type":"Feature","geometry":{"type":"Point","coordinates":[-4.3014144,55.8238539]},"properties":{"name":"Pollokshaws West","train":"yes","network":"National Rail","railway":"station","ref:crs":"PWW","operator":"ScotRail","wikidata":"Q7225728","wikipedia":"en:Pollokshaws West railway station","naptan:AtcoCode":"9100PLKSHWW","public_transport":"station"}},
{"type":"Feature","geometry":{"type":"Point","coordinates":[-4.2399263,55.8593458]},"properties":{"name":"High Street","train":"yes","network":"National Rail","railway":"station","ref:crs":"HST","operator":"ScotRail","wikidata":"Q742289","wikipedia":"en:High Street (Glasgow) railway station","naptan:AtcoCode":"9100GLGHST","public_transport":"station"}},
{"type":"Feature","geometry":{"type":"Point","coordinates":[-3.9574771,55.7772838]},"properties":{"name":"Shieldmuir","network":"National Rail","railway":"station","ref:crs":"SDM","operator":"ScotRail","wikidata":"Q3439804","wikipedia":"en:Shieldmuir railway station","wheelchair":"yes","naptan:AtcoCode":"9100SHILDMR"}},
{"type":"Feature","geometry":{"type":"Point","coordinates":[-4.0320785,55.8626694]},"properties":{"name":"Coatbridge Central","train":"yes","network":"National Rail","railway":"station","ref:crs":"CBC","operator":"ScotRail","wikidata":"Q2781887","wikipedia":"en:Coatbridge Central railway station","wheelchair":"yes","naptan:AtcoCode":"9100COATBDC","public_transport":"station"}},
{"type":"Feature","geometry":{"type":"Point","coordinates":[-4.0361896,55.9556386]},"properties":{"name":"Croy","train":"yes","network":"National Rail","railway":"station","ref:crs":"CRO","operator":"ScotRail","wikidata":"Q2832500","wikipedia":"en:Croy railway station","naptan:AtcoCode":"9100CROY","public_transport":"station"}},
{"type":"Feature","geometry":{"type":"Point","coordinates":[-4.1539264,55.9213422]},"properties":{"name":"Lenzie","train":"yes","source":"NPE","network":"National Rail","railway":"station","ref:crs":"LNZ","operator":"ScotRail","wikidata":"Q1893288","wikipedia":"en:Lenzie railway station","naptan:AtcoCode":"9100LENZIE","public_transport":"station"}},
{"type":"Feature","geometry":{"type":"Point","coordinates":[-3.78886,56.1179073]},"properties":{"name":"Alloa","train":"yes","network":"National Rail","railway":"station","ref:crs":"ALO","operator":"ScotRail","wikipedia":"en:Alloa railway station","naptan:AtcoCode":"9100ALLOA","public_transport":"station"}},
{"type":"Feature","geometry":{"type":"Point","coordinates":[-3.6693685,55.6913659]},"properties":{"name":"Carstairs","train":"yes","network":"National Rail","railway":"station","ref:crs":"CRS","operator":"ScotRail","wikidata":"Q657363","wikipedia":"en:Carstairs railway station","naptan:AtcoCode":"9100CRSTRS","public_transport":"station"}},
{"type":"Feature","geometry":{"type":"Point","coordinates":[-6.5975599,55.1115126]},"properties":{"name":"Damhead Miniature Railway","usage":"tourism","railway":"station","operator":"Coleraine and District Society of Model Engineers Ltd","addr:city":"Coleraine","addr:street":"Damhead Road","phone:mobile":"+44 7714 026864","addr:postcode":"BT52 2JS","opening_hours":"Sa 12:00-17:00","contact:twitter":"https://twitter.com/damheadr","contact:facebook":"https://www.facebook.com/DamheadRailway/"}},
{"type":"Feature","geometry":{"type":"Point","coordinates":[-5.8436285,54.8889179]},