{"type":"FeatureCollection","features":[
{"type":"Feature","geometry":{"type":"Point","coordinates":[-0.0653308,51.3870773]},"properties":{"name":"Woodside","tram":"yes","source":"http://en.wikipedia.org/wiki/Tramlink","network":"London Trams","railway":"tram_stop","operator":"Transport for London","wikidata":"Q8033361","naptan:AtcoCode":"9400ZZCRWOD1","public_transport":"stop_position"}},
{"type":"Feature","geometry":{"type":"Point","coordinates":[-0.070221,51.3849891]},"properties":{"name":"Blackhorse Lane","tram":"yes","source":"http://en.wikipedia.org/wiki/Tramlink","network":"London Trams","railway":"tram_stop","operator":"Transport for London","wikidata":"Q4923016","wikipedia":"en:Blackhorse Lane tram stop","naptan:AtcoCode":"9400ZZCRBLA1","public_transport":"stop_position"}},
{"type":"Feature","geometry":{"type":"Point","coordinates":[-0.0429213,51.3545721]},"properties":{"name":"Gravel Hill","tram":"yes","source":"http://en.wikipedia.org/wiki/Tramlink","network":"London Trams","railway":"tram_stop","operator":"Transport for London","wikidata":"Q5597828","naptan:AtcoCode":"9400ZZCRGRA1","public_transport":"stop_position"}},
{"type":"Feature","geometry":{"type":"Point","coordinates":[-0.1711521,51.3975335]},"properties":{"name":"Mitcham","tram":"yes","source":"http://en.wikipedia.org/wiki/Tramlink","network":"London Trams","railway":"tram_stop","operator":"Transport for London","wikidata":"Q12061902","naptan:AtcoCode":"9400ZZCRMCH1","public_transport":"stop_position"}},
{"type":"Feature","geometry":{"type":"Point","coordinates":[-0.1428504,51.3894605]},"properties":{"name":"Beddington Lane","tram":"yes","source":"http://en.wikipedia.org/wiki/Tramlink","network":"London Trams","railway":"tram_stop","operator":"Transport for London","wikidata":"Q4879025","naptan:AtcoCode":"9400ZZCRBED1","public_transport":"stop_position"}},
{"type":"Feature","geometry":{"type":"Point","coordinates":[-0.1290915,51.3856974]},"properties":{"name":"Therapia Lane","tram":"yes","source":"http://en.wikipedia.org/wiki/Tramlink","network":"London Trams","railway":"tram_stop","operator":"Transport for London","wikidata":"Q7782528","wikipedia":"en:Therapia Lane tram stop","naptan:AtcoCode":"9400ZZCRTPA1","public_transport":"stop_position"}},
{"type":"Feature","geometry":{"type":"Point","coordinates":[-0.1236871,51.3823591]},"properties":{"name":"Ampere Way","tram":"yes","source":"http://en.wikipedia.org/wiki/Tramlink","network":"London Trams","railway":"tram_stop","alt_name":"IKEA Ampere Way","operator":"Transport for London","wikidata":"Q4748124","wikipedia":"en:Ampere Way tram stop","naptan:AtcoCode":"9400ZZCRAMP1","public_transport":"stop_position"}},
{"type":"Feature","geometry":{"type":"Point","coordinates":[-0.1178267,51.3770031]},"properties":{"name":"Waddon Marsh","tram":"yes","source":"http://en.wikipedia.org/wiki/Tramlink","network":"London Trams","railway":"tram_stop","operator":"Transport for London","wikidata":"Q7959003","naptan:AtcoCode":"9400ZZCRWAD1","public_transport":"stop_position"}},
{"type":"Feature","geometry":{"type":"Point","coordinates":[-0.1133617,51.3734814]},"properties":{"name":"Wandle Park","tram":"yes","source":"http://en.wikipedia.org/wiki/Tramlink","network":"London Trams","railway":"tram_stop","operator":"Transport for London","wikidata":"Q7967268","wikipedia":"en:Wandle Park tram stop","naptan:AtcoCode":"9400ZZCRWAN1","public_transport":"stop_position"}},
{"type":"Feature","geometry":{"type":"Point","coordinates":[-0.1574264,51.3926869]},"properties":{"name":"Mitcham Junction","tram":"yes","source":"http://en.wikipedia.org/wiki/Tramlink","network":"London Trams","railway":"tram_stop","operator":"Transport for London","naptan:AtcoCode":"9400ZZCRMJT1","public_transport":"station"}},
{"type":"Feature","geometry":{"type":"Point","coordinates":[-0.0777467,51.3749647]},"properties":{"name":"Sandilands","tram":"yes","source":"http://en.wikipedia.org/wiki/Tramlink","network":"London Trams","railway":"tram_stop","operator":"Transport for London","wikidata":"Q7416357","wheelchair":"yes","naptan:AtcoCode":"9400ZZCRSAN1","public_transport":"stop_position","toilets:wheelchair":"no"}},
{"type":"Feature","geometry":{"type":"Point","coordinates":[-0.0328821,51.3562667]},"properties":{"name":"Addington Village","tram":"yes","network":"London Trams","railway":"tram_stop","operator":"Transport for London","naptan:AtcoCode":"9400ZZCRADV1","public_transport":"stop_position"}},
{"type":"Feature","geometry":{"type":"Point","coordinates":[-0.0241702,51.3509685]},"properties":{"name":"Fieldway","tram":"yes","source":"http://en.wikipedia.org/wiki/Tramlink","network":"London Trams","railway":"tram_stop","operator":"Transport for London","wikidata":"Q5447235","wikipedia":"en:Fieldway tram stop","naptan:AtcoCode":"9400ZZCRFLD1","public_transport":"stop_position"}},
{"type":"Feature","geometry":{"type":"Point","coordinates":[-0.0202322,51.3453762]},"properties":{"name":"King Henry's Drive","tram":"yes","source":"http://en.wikipedia.org/wiki/Tramlink","network":"London Trams","railway":"tram_stop","operator":"Transport for London","wikidata":"Q6411696","wikipedia":"en:King Henry's Drive tram stop","naptan:AtcoCode":"9400ZZCRKGH1","public_transport":"stop_position"}},
{"type":"Feature","geometry":{"type":"Point","coordinates":[-0.1062524,51.374803]},"properties":{"name":"Reeves Corner","tram":"yes","source":"http://en.wikipedia.org/wiki/Tramlink","network":"London Trams","railway":"tram_stop","operator":"Transport for London","wikidata":"Q7307059","wikipedia":"en:Reeves Corner tram stop","naptan:AtcoCode":"4900020014A","public_transport":"stop_position"}},
{"type":"Feature","geometry":{"type":"Point","coordinates":[-0.0989116,51.3739003]},"properties":{"name":"George Street","tram":"yes","source":"http://en.wikipedia.org/wiki/Tramlink","network":"London Trams","railway":"tram_stop","operator":"Transport for London","wikidata":"Q5544906","wheelchair":"yes","naptan:AtcoCode":"9400ZZCRCEN1","public_transport":"stop_position"}},
{"type":"Feature","geometry":{"type":"Point","coordinates":[-0.0558016,51.4037479]},"properties":{"name":"Birkbeck","tram":"yes","source":"http://en.wikipedia.org/wiki/Tramlink","network":"London Trams","railway":"tram_stop","operator":"Transport for London","naptan:AtcoCode":"9400ZZCRBIR1","public_transport":"stop_position"}},
{"type":"Feature","geometry":{"type":"Point","coordinates":[-0.0604811,51.399663]},"properties":{"name":"Harrington Road","tram":"yes","source":"http://en.wikipedia.org/wiki/Tramlink","network":"London Trams","railway":"tram_stop","operator":"Transport for London","wikidata":"Q5664640","naptan:AtcoCode":"9400ZZCRHAR1","public_transport":"stop_position"}},
{"type":"Feature","geometry":{"type":"Point","coordinates":[-0.0431569,51.4096366]},"properties":{"name":"Beckenham Road","tram":"yes","source":"http://en.wikipedia.org/wiki/Tramlink","network":"London Trams","railway":"tram_stop","operator":"Transport for London","wikidata":"Q4878648","naptan:AtcoCode":"9400ZZCRBRD1","public_transport":"stop_position"}},
{"type":"Feature","geometry":{"type":"Point","coordinates":[-0.0976166,51.3756242]},"properties":{"name":"Wellesley Road","tram":"yes","source":"http://en.wikipedia.org/wiki/Tramlink","network":"London Trams","railway":"tram_stop","operator":"Transport for London","wikidata":"Q7981260","addr:city":"Croydon","wheelchair":"yes","addr:street":"Wellesley Road","naptan:AtcoCode":"9400ZZCRWEL1","public_transport":"stop_position","wheelchair:description":"Step-free from platform to tram"}},
{"type":"Feature","geometry":{"type":"Point","coordinates":[-0.0600802,51.3598192]},"properties":{"name":"Coombe Lane","tram":"yes","source":"http://en.wikipedia.org/wiki/Tramlink","network":"London Trams","railway":"tram_stop","operator":"Transport for London","wikidata":"Q5167607","naptan:AtcoCode":"9400ZZCRCOO1","public_transport":"stop_position"}},
{"type":"Feature","geometry":{"type":"Point","coordinates":[-0.1042366,51.373656]},"properties":{"name":"Church Street","tram":"yes","source":"http://en.wikipedia.org/wiki/Tramlink","network":"London Trams","railway":"tram_stop","operator":"Transport for London","wikidata":"Q5116720","naptan:AtcoCode":"9400ZZCRCHR1","public_transport":"stop_position"}},
{"type":"Feature","geometry":{"type":"Point","coordinates":[-0.049519,51.4067969]},"properties":{"name":"Avenue Road","tram":"yes","source":"http://en.wikipedia.org/wiki/Tramlink","network":"London Trams","railway":"tram_stop","operator":"Transport for London","wikidata":"Q4828205","naptan:AtcoCode":"9400ZZCRAVE1","public_transport":"stop_position"}},
{"type":"Feature","geometry":{"type":"Point","coordinates":[-0.0582529,51.3916054]},"properties":{"name":"Arena","tram":"yes","source":"http://en.wikipedia.org/wiki/Tramlink","network":"London Trams","railway":"tram_stop","operator":"Transport for London","wikidata":"Q2446177","naptan:AtcoCode":"9400ZZCRARA1","public_transport":"stop_position"}},
{"type":"Feature","geometry":{"type":"Point","coordinates":[-0.073267,51.3799365]},"properties":{"name":"Addiscombe","tram":"yes","source":"http://en.wikipedia.org/wiki/Tramlink","network":"London Trams","railway":"tram_stop","operator":"Transport for London","wikidata":"Q4681215","wheelchair":"yes","naptan:AtcoCode":"9400ZZCRADD1","public_transport":"stop_position"}},
{"type":"Feature","geometry":{"type":"Point","coordinates":[-0.0495263,51.3983499]},"properties":{"name":"Elmers End","tram":"yes","source":"http://en.wikipedia.org/wiki/Tramlink","network":"London Trams","railway":"tram_stop","operator":"Transport for London","naptan:AtcoCode":"9400ZZCRELM1","public_transport":"stop_position"}},
{"type":"Feature","geometry":{"type":"Point","coordinates":[-0.1037838,51.3758669]},"properties":{"name":"Centrale","tram":"yes","source":"http://en.wikipedia.org/wiki/Tramlink","network":"London Trams","railway":"tram_stop","operator":"Transport for London","wikidata":"Q5062168","wikipedia":"en:Centrale tram stop","naptan:AtcoCode":"9400ZZCRCTR1","public_transport":"stop_position"}},
{"type":"Feature","geometry":{"type":"Point","coordinates":[-0.1016245,51.3790494]},"properties":{"name":"West Croydon","tram":"yes","source":"http://en.wikipedia.org/wiki/Tramlink","network":"London Trams","railway":"tram_stop","operator":"Transport for London","wheelchair":"yes","naptan:AtcoCode":"9400ZZCRWCR1","public_transport":"stop_position","wheelchair:description":"Step-free from platform to tram, & to Bus station opposite. Ramp to West Croydon railway station."}},
{"type":"Feature","geometry":{"type":"Point","coordinates":[-0.0926469,51.3749081]},"properties":{"name":"East Croydon","public_transport":"stop_position","public_transport:version":"2","railway":"tram_stop","tram":"yes"}},
{"type":"Feature","geometry":{"type":"Point","coordinates":[-0.0847328,51.3752087]},"properties":{"name":"Lebanon Road","tram":"yes","network":"London Trams","railway":"tram_stop","operator":"Transport for London","wikidata":"Q6511121","wheelchair":"yes","naptan:AtcoCode":"9400ZZCRLEB1","public_transport":"stop_position","toilets:wheelchair":"no"}},
{"type":"Feature","geometry":{"type":"Point","coordinates":[-0.1783961,51.4009649]},"properties":{"name":"Belgrave Walk","tram":"yes","source":"http://en.wikipedia.org/wiki/Tramlink","network":"London Trams","railway":"tram_stop","operator":"Transport for London","wikidata":"Q4882688","wikipedia":"en:Belgrave Walk tram stop","naptan:AtcoCode":"9400ZZCRBGV1","public_transport":"station"}},
{"type":"Feature","geometry":{"type":"Point","coordinates":[-0.182318,51.4034301]},"properties":{"name":"Phipps Bridge","tram":"yes","source":"http://en.wikipedia.org/wiki/Tramlink","network":"London Trams","railway":"tram_stop","operator":"Transport for London","wikidata":"Q7186406","wikipedia":"en:Phipps Bridge tram stop","naptan:AtcoCode":"9400ZZCRPHI1","public_transport":"station"}},
{"type":"Feature","geometry":{"type":"Point","coordinates":[-0.0805814,51.3642061]},"properties":{"name":"Lloyd Park","tram":"yes","source":"http://en.wikipedia.org/wiki/Tramlink","network":"London Trams","railway":"tram_stop","operator":"Transport for London","wikidata":"Q6662683","wikipedia":"en:Lloyd Park tram stop","naptan:AtcoCode":"9400ZZCRLOY1","public_transport":"stop_position"}},
{"type":"Feature","geometry":{"type":"Point","coordinates":[-0.0927623,51.3747991]},"properties":{"name":"East Croydon","public_transport":"stop_position","public_transport:version":"2","railway":"tram_stop","tram":"yes"}},
{"type":"Feature","geometry":{"type":"Point","coordinates":[-0.0174858,51.3426434]},"properties":{"name":"New Addington","source":"http://en.wikipedia.org/wiki/Tramlink","network":"London Trams","railway":"tram_stop","operator":"Transport for London","wikidata":"Q7005193","wikipedia":"en:New Addington tram stop","naptan:AtcoCode":"9400ZZCRNWA1"}},
{"type":"Feature","geometry":{"type":"Point","coordinates":[-0.0927844,51.3748462]},"properties":{"name":"East Croydon","network":"London Trams","operator":"Transport for London","public_transport":"stop_position","public_transport:version":"2","railway":"tram_stop","tram":"yes"}},
{"type":"Feature","geometry":{"type":"Point","coordinates":[-0.0265624,51.4107831]},"properties":{"name":"Beckenham Junction","tram":"yes","source":"http://en.wikipedia.org/wiki/Tramlink","network":"London Trams","railway":"tram_stop","operator":"Transport for London","naptan:AtcoCode":"9400ZZCRBEK1"}},
{"type":"Feature","geometry":{"type":"Point","coordinates":[-0.1929042,51.4088694]},"properties":{"name":"Morden Road","tram":"yes","source":"http://en.wikipedia.org/wiki/Tramlink","network":"London Trams","railway":"tram_stop","operator":"Transport for London","wikidata":"Q6910814","wikipedia":"en:Morden Road tram stop","naptan:AtcoCode":"9400ZZCRMDN1","public_transport":"station"}},
{"type":"Feature","geometry":{"type":"Point","coordinates":[-0.2013354,51.413729]},"properties":{"name":"Merton Park","tram":"yes","source":"http://en.wikipedia.org/wiki/Tramlink","network":"London Trams","railway":"tram_stop","operator":"Transport for London","wikidata":"Q12061717","wikipedia":"en:Merton Park tram stop","naptan:AtcoCode":"9400ZZCRMTP1","public_transport":"station"}},
{"type":"Feature","geometry":{"type":"Point","coordinates":[-0.2076722,51.4175942]},"properties":{"name":"Dundonald Road","naptan:AtcoCode":"9400ZZCRDDR1","network":"London Trams","operator":"Transport for London","public_transport":"station","railway":"tram_stop","tram":"yes","wikidata":"Q5314898","wikipedia":"en:Dundonald Road tram stop"}},
{"type":"Feature","geometry":{"type":"Point","coordinates":[-0.2054105,51.4214362]},"properties":{"name":"Wimbledon","network":"London Trams","railway":"tram_stop","operator":"Transport for London","source_ref":"http://en.wikipedia.org/wiki/Tramlink","naptan:AtcoCode":"9400ZZCRWMB1"}},
{"type":"Feature","geometry":{"type":"Point","coordinates":[-0.0328853,51.3562243]},"properties":{"name":"Addington Village","tram":"yes","network":"London Trams","railway":"tram_stop","operator":"Transport for London","public_transport":"stop_position"}}
]}
