{"type":"FeatureCollection","features":[
{"type":"Feature","geometry":{"type":"Point","coordinates":[-1.1670093,52.9651616]},"properties":{"name":"The Forest","tram":"yes","source":"naptan_import","railway":"tram_stop","wikidata":"Q21061482","local_ref":"NET13","wheelchair":"yes","naptan:Street":"Noel Street","naptan:Bearing":"S","naptan:AtcoCode":"3390NET13","naptan:Landmark":"Forest Park& Ride Site","naptan:verified":"no","naptan:Indicator":"Stop NET13","public_transport":"stop_position","naptan:CommonName":"The Forest Tram Stop","naptan:NaptanCode":"ntmamtja","naptan:PlusbusZoneRef":"NTNG"}},
{"type":"Feature","geometry":{"type":"Point","coordinates":[-1.1786516,52.9720764]},"properties":{"name":"Wilkinson Street","tram":"yes","source":"naptan_import","railway":"tram_stop","wikidata":"Q20811302","local_ref":"NET19","wheelchair":"yes","naptan:Street":"Wilkinson Street","naptan:Bearing":"W","naptan:AtcoCode":"3390NET19","naptan:Landmark":"Wilkinson Street","naptan:verified":"no","naptan:Indicator":"Stop NET19","public_transport":"stop_position","naptan:CommonName":"Wilkinson Street Tram Stop","naptan:NaptanCode":"ntmadmag","naptan:PlusbusZoneRef":"NTNG"}},
{"type":"Feature","geometry":{"type":"Point","coordinates":[-1.1885212,53.0288407]},"properties":{"local_ref":"NET39","name":"Butler's Hill","naptan:AtcoCode":"3300NET39","naptan:Bearing":"SE","naptan:CommonName":"Tram Station","naptan:Indicator":"Stop NET39","naptan:Landmark":"Tram Station","naptan:NaptanCode":"ntsamjpd","naptan:Notes":"None","naptan:Street":"Story Gardens","naptan:verified":"no","railway":"tram_stop","source":"naptan_import"}},
{"type":"Feature","geometry":{"type":"Point","coordinates":[-1.1959196,53.0382968]},"properties":{"local_ref":"NET40","name":"Hucknall","naptan:AtcoCode":"3300NET40","naptan:Bearing":"SE","naptan:CommonName":"Tram Station","naptan:Indicator":"Stop NET40","naptan:Landmark":"Tram Station","naptan:NaptanCode":"ntsamjpg","naptan:Notes":"None","naptan:Street":"Car Park","naptan:verified":"no","railway":"tram_stop","source":"naptan_import"}},
{"type":"Feature","geometry":{"type":"Point","coordinates":[-1.1737525,52.9715476]},"properties":{"name":"Shipstone Street","source":"naptan_import","railway":"tram_stop","wikidata":"Q24886461","local_ref":"NET16","naptan:Street":"Shipstone Street","naptan:Bearing":"NW","naptan:AtcoCode":"3390NET16","naptan:Landmark":"Shipstone Street","naptan:verified":"no","naptan:Indicator":"Stop NET16","naptan:CommonName":"Shipstone Street Tram Stop","naptan:NaptanCode":"ntmamtjm","naptan:PlusbusZoneRef":"NTNG"}},
{"type":"Feature","geometry":{"type":"Point","coordinates":[-1.1516745,52.9550165]},"properties":{"name":"Royal Centre","tram":"yes","source":"naptan_import","railway":"tram_stop","local_ref":"NET07","wheelchair":"yes","naptan:Street":"Wollaton Street","naptan:Bearing":"E","naptan:AtcoCode":"3390NET07","naptan:Landmark":"Royal Centre","naptan:verified":"no","naptan:Indicator":"Stop NET07","public_transport":"stop_position","naptan:CommonName":"Royal Centre Tram Stop","naptan:NaptanCode":"ntmamtgd","naptan:PlusbusZoneRef":"NTNG"}},
{"type":"Feature","geometry":{"type":"Point","coordinates":[-1.206646,52.9888226]},"properties":{"name":"Phoenix Park","tram":"yes","railway":"tram_stop","alt_name":"Phoenix Park Tram Stop","wikidata":"Q7186947","local_ref":"NET31","wikipedia":"en:Phoenix Park tram stop","naptan:Street":"Millennium Way East","naptan:Bearing":"E","naptan:AtcoCode":"3390NET31","naptan:Landmark":"Phoenix Park","naptan:verified":"no","naptan:Indicator":"Stop NET31","public_transport":"stop_position","naptan:CommonName":"Phoenix Park Tram Stop","naptan:NaptanCode":"ntmamtma","naptan:PlusbusZoneRef":"NTNG"}},
{"type":"Feature","geometry":{"type":"Point","coordinates":[-1.1903986,52.989546]},"properties":{"name":"Highbury Vale B","source":"naptan_import;GPS","railway":"tram_stop","alt_name":"Highbury Vale Branch Tram Stop","local_ref":"NET28","naptan:Street":"Highbury Vale","naptan:Bearing":"SW","naptan:AtcoCode":"3390NET28","naptan:Landmark":"Highbury Vale Branch Off","naptan:verified":"yes","naptan:Indicator":"Stop NET28","naptan:CommonName":"Highbury Vale Branch Tram Stop","naptan:NaptanCode":"ntmadmdm","naptan:PlusbusZoneRef":"NTNG"}},
{"type":"Feature","geometry":{"type":"Point","coordinates":[-1.1894917,52.9896881]},"properties":{"name":"Highbury Vale A","source":"naptan_import;GPS","railway":"tram_stop","alt_name":"Highbury Vale Mainline Tram Stop","local_ref":"NET26","naptan:Street":"Highbury Vale","naptan:Bearing":"SE","naptan:AtcoCode":"3390NET26","naptan:Landmark":"Highbury Vale","naptan:verified":"yes","naptan:Indicator":"Stop NET26","naptan:CommonName":"Highbury Vale Mainline Tram Stop","naptan:NaptanCode":"ntmadmdg","naptan:PlusbusZoneRef":"NTNG"}},
{"type":"Feature","geometry":{"type":"Point","coordinates":[-1.1612768,52.9621779]},"properties":{"name":"High School","railway":"tram_stop","wikidata":"Q19462304"}},
{"type":"Feature","geometry":{"type":"Point","coordinates":[-1.1739284,52.9697456]},"properties":{"name":"Radford Road","source":"naptan_import","railway":"tram_stop","wikidata":"Q24884818","local_ref":"NET18","wheelchair":"yes","naptan:Street":"Radford Road","naptan:Bearing":"W","naptan:AtcoCode":"3390NET18","naptan:Landmark":"Belton Street","naptan:verified":"no","naptan:Indicator":"Stop NET18","naptan:CommonName":"Radford Road Tram Stop","naptan:NaptanCode":"ntmamtjt","naptan:PlusbusZoneRef":"NTNG"}},
{"type":"Feature","geometry":{"type":"Point","coordinates":[-1.195625,52.9990335]},"properties":{"name":"Bulwell","tram":"yes","source":"naptan_import;memory","railway":"tram_stop","local_ref":"NET33","naptan:Street":"Station Road","naptan:Bearing":"SW","naptan:AtcoCode":"3390NET33","naptan:Landmark":"Bulwell Station","naptan:verified":"no","naptan:Indicator":"Stop NET33","public_transport":"stop_position","naptan:CommonName":"Bulwell Tram Stop","naptan:NaptanCode":"ntmamtmg","naptan:PlusbusZoneRef":"NTNG"}},
{"type":"Feature","geometry":{"type":"Point","coordinates":[-1.1710216,52.966405]},"properties":{"name":"Hyson Green Market","source":"naptan_import","railway":"tram_stop","wikidata":"Q24993380","local_ref":"NET17","wheelchair":"yes","naptan:Street":"Radford Road","naptan:Bearing":"W","naptan:AtcoCode":"3390NET17","naptan:Landmark":"St Paul's Avenue","naptan:verified":"no","naptan:Indicator":"Stop NET17","naptan:CommonName":"Hyson Green Market Tram Stop","naptan:NaptanCode":"ntmamtjp","naptan:PlusbusZoneRef":"NTNG"}},
{"type":"Feature","geometry":{"type":"Point","coordinates":[-1.1686609,52.9673043]},"properties":{"name":"Noel Street","source":"naptan_import","railway":"tram_stop","wikidata":"Q24884890","local_ref":"NET14","naptan:Street":"Noel Street","naptan:Bearing":"S","naptan:AtcoCode":"3390NET14","naptan:Landmark":"Noel Street","naptan:verified":"no","naptan:Indicator":"Stop NET14","naptan:CommonName":"Noel Street Tram Stop","naptan:NaptanCode":"ntmamtjd","naptan:PlusbusZoneRef":"NTNG"}},
{"type":"Feature","geometry":{"type":"Point","coordinates":[-1.1550819,52.9579156]},"properties":{"name":"Nottingham Trent University","tram":"yes","source":"naptan_import","railway":"tram_stop","local_ref":"NET08","naptan:Street":"Goldsmith Street","naptan:Bearing":"SE","naptan:AtcoCode":"3390NET08","naptan:Landmark":"Nottingham Trent University","naptan:Indicator":"Stop NET08","public_transport":"stop_position","naptan:CommonName":"Nottm Trent University Tram Stop","naptan:NaptanCode":"ntmamtgj","naptan:PlusbusZoneRef":"NTNG"}},
{"type":"Feature","geometry":{"type":"Point","coordinates":[-1.1903186,53.005788]},"properties":{"name":"Bulwell Forest","railway":"tram_stop","wikidata":"Q20827646","local_ref":"NET35","wikipedia":"en:Bulwell Forest tram stop","naptan:Street":"Bestwood Road","naptan:Bearing":"NW","naptan:AtcoCode":"3390NET35","naptan:Landmark":"Bestwood Road","naptan:verified":"no","naptan:Indicator":"Stop NET35","naptan:CommonName":"Bulwell Forest Tram Stop","naptan:NaptanCode":"ntmamtmp","naptan:PlusbusZoneRef":"NTNG"}},
{"type":"Feature","geometry":{"type":"Point","coordinates":[-1.1869889,53.0145435]},"properties":{"name":"Moor Bridge","tram":"yes","source":"survey","railway":"tram_stop","wikidata":"Q20827641","wikipedia":"en:Moor Bridge tram stop","public_transport":"stop_position"}},
{"type":"Feature","geometry":{"type":"Point","coordinates":[-1.151977,52.9551719]},"properties":{"name":"Royal Centre","tram":"yes","source":"naptan_import","railway":"tram_stop","local_ref":"NET06","wheelchair":"yes","naptan:Street":"Wollaton Street","naptan:Bearing":"N","naptan:AtcoCode":"3390NET06","naptan:Landmark":"Royal Centre","naptan:verified":"no","naptan:Indicator":"Stop NET06","public_transport":"stop_position","naptan:CommonName":"Royal Centre Tram Stop","naptan:NaptanCode":"ntmajwma","naptan:PlusbusZoneRef":"NTNG"}},
{"type":"Feature","geometry":{"type":"Point","coordinates":[-1.1547084,52.9577861]},"properties":{"name":"Nottingham Trent University","tram":"yes","source":"naptan_import","railway":"tram_stop","local_ref":"NET09","naptan:Street":"Goldsmith Street","naptan:Bearing":"NW","naptan:AtcoCode":"3390NET09","naptan:Landmark":"Nottingham Trent University","naptan:Indicator":"Stop NET09","public_transport":"stop_position","naptan:CommonName":"Nottm Trent University Tram Stop","naptan:NaptanCode":"ntmamtgm","naptan:PlusbusZoneRef":"NTNG"}},
{"type":"Feature","geometry":{"type":"Point","coordinates":[-1.1704038,52.9701621]},"properties":{"name":"Beaconsfield Street","source":"naptan_import","railway":"tram_stop","wikidata":"Q24886431","local_ref":"NET15","naptan:Street":"Noel Street","naptan:Bearing":"N","naptan:AtcoCode":"3390NET15","naptan:Landmark":"Beaconsfield Street","naptan:verified":"no","naptan:Indicator":"Stop NET15","naptan:CommonName":"Beaconsfield Street Tram Stop","naptan:NaptanCode":"ntmamtjg","naptan:PlusbusZoneRef":"NTNG"}},
{"type":"Feature","geometry":{"type":"Point","coordinates":[-1.1784086,52.9816568]},"properties":{"local_ref":"NET21","name":"Basford","naptan:AtcoCode":"3390NET21","naptan:Bearing":"NW","naptan:CommonName":"Basford Tram Stop","naptan:Indicator":"Stop NET21","naptan:Landmark":"Vernon Road","naptan:NaptanCode":"ntmadmam","naptan:PlusbusZoneRef":"NTNG","naptan:Street":"Vernon Road","naptan:verified":"yes","public_transport":"stop_position","railway":"tram_stop","source":"naptan_import","tram":"yes"}},
{"type":"Feature","geometry":{"type":"Point","coordinates":[-1.1783596,52.9816725]},"properties":{"local_ref":"NET22","name":"Basford","naptan:AtcoCode":"3390NET22","naptan:Bearing":"SE","naptan:CommonName":"Basford Tram Stop","naptan:Indicator":"Stop NET22","naptan:Landmark":"Vernon Road","naptan:NaptanCode":"ntmadmap","naptan:PlusbusZoneRef":"NTNG","naptan:Street":"Vernon Road","naptan:verified":"yes","public_transport":"stop_position","railway":"tram_stop","source":"naptan_import","tram":"yes"}},
{"type":"Feature","geometry":{"type":"Point","coordinates":[-1.1822532,52.9850218]},"properties":{"name":"David Lane","railway":"tram_stop","local_ref":"NET23","naptan:Street":"Vernon Road","naptan:Bearing":"NW","naptan:AtcoCode":"3390NET23","naptan:Landmark":"David Lane","naptan:verified":"yes","naptan:Indicator":"Stop NET23","naptan:CommonName":"David Lane Tram Stop","naptan:NaptanCode":"ntmadmat","naptan:PlusbusZoneRef":"NTNG"}},
{"type":"Feature","geometry":{"type":"Point","coordinates":[-1.1909861,52.9894442]},"properties":{"name":"Highbury Vale","tram":"yes","source":"naptan_import","railway":"tram_stop","local_ref":"NET27","naptan:Street":"Highbury Vale","naptan:Bearing":"NW","naptan:AtcoCode":"3390NET27","naptan:Landmark":"Highbury Vale Branch Off","naptan:verified":"yes","naptan:Indicator":"Stop NET27","public_transport":"stop_position","naptan:CommonName":"Highbury Vale Branch Tram Stop","naptan:NaptanCode":"ntmadmdj","naptan:PlusbusZoneRef":"NTNG"}},
{"type":"Feature","geometry":{"type":"Point","coordinates":[-1.2007004,52.988996]},"properties":{"name":"Cinderhill","source":"naptan_import","railway":"tram_stop","local_ref":"NET29","naptan:Street":"Cinderhill Road","naptan:Bearing":"E","naptan:AtcoCode":"3390NET29","naptan:Landmark":"Cinderhill","naptan:verified":"no","naptan:Indicator":"Stop NET29","naptan:CommonName":"Cinderhill Tram Stop","naptan:NaptanCode":"ntmadmdp","naptan:PlusbusZoneRef":"NTNG"}},
{"type":"Feature","geometry":{"type":"Point","coordinates":[-1.2006404,52.9889908]},"properties":{"name":"Cinderhill","source":"naptan_import","railway":"tram_stop","local_ref":"NET30","naptan:Street":"Cinderhill Road","naptan:Bearing":"NW","naptan:AtcoCode":"3390NET30","naptan:Landmark":"Cinderhill","naptan:verified":"no","naptan:Indicator":"Stop NET30","naptan:CommonName":"Cinderhill Tram Stop","naptan:NaptanCode":"ntmamtjw","naptan:PlusbusZoneRef":"NTNG"}},
{"type":"Feature","geometry":{"type":"Point","coordinates":[-1.1902371,53.0060536]},"properties":{"name":"Bulwell Forest","railway":"tram_stop","wikidata":"Q20827646","local_ref":"NET34","wikipedia":"en:Bulwell Forest tram stop","naptan:Street":"Bestwood Road","naptan:Bearing":"S","naptan:AtcoCode":"3390NET34","naptan:Landmark":"Bestwood Road","naptan:verified":"no","naptan:Indicator":"Stop NET34","naptan:CommonName":"Bulwell Forest Tram Stop","naptan:NaptanCode":"ntmamtmj","naptan:PlusbusZoneRef":"NTNG"}},
{"type":"Feature","geometry":{"type":"Point","coordinates":[-1.1818984,52.9847697]},"properties":{"name":"David Lane","railway":"tram_stop","local_ref":"NET24","naptan:Street":"Vernon Road","naptan:Bearing":"SE","naptan:AtcoCode":"3390NET24","naptan:Landmark":"David Lane","naptan:verified":"yes","naptan:Indicator":"Stop NET24","naptan:CommonName":"David Lane Tram Stop","naptan:NaptanCode":"ntmadmaw","naptan:PlusbusZoneRef":"NTNG"}},
{"type":"Feature","geometry":{"type":"Point","coordinates":[-1.2005098,52.9889725]},"properties":{"name":"Cinderhill","tram":"yes","railway":"tram_stop","public_transport":"stop_position"}},
{"type":"Feature","geometry":{"type":"Point","coordinates":[-1.1956173,52.9994031]},"properties":{"name":"Bulwell","source":"naptan_import","railway":"tram_stop","local_ref":"NET32","naptan:Street":"Station Road","naptan:Bearing":"S","naptan:AtcoCode":"3390NET32","naptan:Landmark":"Bulwell Station","naptan:verified":"no","naptan:Indicator":"Stop NET32","public_transport":"stop_position","naptan:CommonName":"Bulwell Tram Stop","naptan:NaptanCode":"ntmamtmd","naptan:PlusbusZoneRef":"NTNG"}},
{"type":"Feature","geometry":{"type":"Point","coordinates":[-1.1899689,52.9898823]},"properties":{"name":"Highbury Vale A","tram":"yes","source":"naptan_import","railway":"tram_stop","local_ref":"NET25","naptan:Street":"Highbury Vale","naptan:Bearing":"N","naptan:AtcoCode":"3390NET25","naptan:Landmark":"Highbury Vale","naptan:verified":"yes","naptan:Indicator":"Stop NET25","public_transport":"stop_position","naptan:CommonName":"Highbury Vale Mainline Tram Stop","naptan:NaptanCode":"ntmadmda","naptan:PlusbusZoneRef":"NTNG"}},
{"type":"Feature","geometry":{"type":"Point","coordinates":[-1.1502124,52.9530266]},"properties":{"local_ref":"NET04","name":"Old Market Square","naptan:AtcoCode":"3390NET04","naptan:Bearing":"SW","naptan:CommonName":"Old Market Square Tram Stop","naptan:Indicator":"Stop NET04","naptan:Landmark":"Old Market Square","naptan:NaptanCode":"ntmajwjt","naptan:PlusbusZoneRef":"NTNG","naptan:Street":"South Parade","naptan:verified":"yes","public_transport":"stop_position","railway":"tram_stop","source:naptan":"naptan_import","tram":"yes","wheelchair":"yes"}},
{"type":"Feature","geometry":{"type":"Point","coordinates":[-1.2066434,52.9888909]},"properties":{"name":"Phoenix Park","tram":"yes","railway":"tram_stop","wikidata":"Q7186947","local_ref":"NET31","wikipedia":"en:Phoenix Park tram stop","naptan:Street":"Millennium Way East","naptan:Bearing":"E","naptan:AtcoCode":"3390NET31","naptan:Landmark":"Phoenix Park","naptan:verified":"no","naptan:Indicator":"Stop NET31","public_transport":"stop_position","naptan:CommonName":"Phoenix Park Tram Stop","naptan:NaptanCode":"ntmamtma","naptan:PlusbusZoneRef":"NTNG"}},
{"type":"Feature","geometry":{"type":"Point","coordinates":[-1.1455722,52.9527556]},"properties":{"name":"Lace Market","tram":"yes","railway":"tram_stop","wheelchair":"yes","public_transport":"stop_position"}},
{"type":"Feature","geometry":{"type":"Point","coordinates":[-1.1454426,52.9529856]},"properties":{"name":"Lace Market","tram":"yes","railway":"tram_stop","wheelchair":"yes","public_transport":"stop_position"}},
{"type":"Feature","geometry":{"type":"Point","coordinates":[-1.193173,52.8963714]},"properties":{"name":"Clifton South","source":"Nottingham City Council Open Data","railway":"tram_stop","operator":"Nottingham Express Transit"}},
{"type":"Feature","geometry":{"type":"Point","coordinates":[-1.1583425,52.9147502]},"properties":{"name":"Ruddington Lane","source":"Nottingham City Council Open Data","railway":"tram_stop","operator":"Nottingham Express Transit"}},
{"type":"Feature","geometry":{"type":"Point","coordinates":[-1.1561584,52.9260802]},"properties":{"name":"Wilford Lane","source":"Nottingham City Council Open Data","railway":"tram_stop","operator":"Nottingham Express Transit"}},
{"type":"Feature","geometry":{"type":"Point","coordinates":[-1.156153,52.925782]},"properties":{"name":"Wilford Lane","source":"Nottingham City Council Open Data","railway":"tram_stop","operator":"Nottingham Express Transit"}},
{"type":"Feature","geometry":{"type":"Point","coordinates":[-1.155591,52.935883]},"properties":{"name":"Wilford Village","operator":"Nottingham Express Transit","railway":"tram_stop","source":"Nottingham City Council Open Data"}},
{"type":"Feature","geometry":{"type":"Point","coordinates":[-1.1813375,52.8969586]},"properties":{"name":"Holy Trinity","source":"Nottingham City Council Open Data","railway":"tram_stop","operator":"Nottingham Express Transit"}},
{"type":"Feature","geometry":{"type":"Point","coordinates":[-1.1810673,52.8971225]},"properties":{"name":"Holy Trinity","source":"Nottingham City Council Open Data","railway":"tram_stop","operator":"Nottingham Express Transit"}},
{"type":"Feature","geometry":{"type":"Point","coordinates":[-1.1769321,52.9038468]},"properties":{"name":"Clifton Centre","source":"Nottingham City Council Open Data","railway":"tram_stop","operator":"Nottingham Express Transit"}},
{"type":"Feature","geometry":{"type":"Point","coordinates":[-1.1769789,52.9036062]},"properties":{"name":"Clifton Centre","source":"Nottingham City Council Open Data","railway":"tram_stop","operator":"Nottingham Express Transit"}},
{"type":"Feature","geometry":{"type":"Point","coordinates":[-1.1746848,52.907056]},"properties":{"name":"Rivergreen","source":"Nottingham City Council Open Data","railway":"tram_stop","operator":"Nottingham Express Transit"}},
{"type":"Feature","geometry":{"type":"Point","coordinates":[-1.1704866,52.9106592]},"properties":{"name":"Southchurch Drive North","source":"Nottingham City Council Open Data","railway":"tram_stop","operator":"Nottingham Express Transit"}},
{"type":"Feature","geometry":{"type":"Point","coordinates":[-1.1703608,52.9107736]},"properties":{"name":"Southchurch Drive North","source":"Nottingham City Council Open Data","railway":"tram_stop","operator":"Nottingham Express Transit"}},
{"type":"Feature","geometry":{"type":"Point","coordinates":[-1.145636,52.9467734]},"properties":{"name":"Nottingham Station","tram":"yes","layer":"3","source":"Nottingham City Council Open Data","railway":"tram_stop","operator":"Nottingham Express Transit","start_date":"2015-07-27","public_transport":"stop_position"}},
{"type":"Feature","geometry":{"type":"Point","coordinates":[-1.1456601,52.9470046]},"properties":{"name":"Nottingham Station","tram":"yes","layer":"3","source":"Nottingham City Council Open Data","railway":"tram_stop","operator":"Nottingham Express Transit","start_date":"2015-07-27","public_transport":"stop_position"}},
{"type":"Feature","geometry":{"type":"Point","coordinates":[-1.1768339,52.9438951]},"properties":{"name":"Gregory Street","operator":"Nottingham Express Transit","public_transport":"stop_position","railway":"tram_stop","source":"Nottingham City Council Open Data","tram":"yes"}},
{"type":"Feature","geometry":{"type":"Point","coordinates":[-1.1835134,52.9427068]},"properties":{"name":"Queens Medical Centre","tram":"yes","source":"Nottingham City Council Open Data","railway":"tram_stop","operator":"Nottingham Express Transit","public_transport":"stop_position"}},
{"type":"Feature","geometry":{"type":"Point","coordinates":[-1.1838415,52.9424207]},"properties":{"name":"Queens Medical Centre","tram":"yes","source":"Nottingham City Council Open Data","railway":"tram_stop","operator":"Nottingham Express Transit","public_transport":"stop_position"}},
{"type":"Feature","geometry":{"type":"Point","coordinates":[-1.2203779,52.922641]},"properties":{"name":"Chilwell Road","source":"Nottingham City Council Open Data","railway":"tram_stop","operator":"Nottingham Express Transit","naptan:NaptanCode":"ntsjmatj"}},
{"type":"Feature","geometry":{"type":"Point","coordinates":[-1.2622951,52.9184143]},"properties":{"name":"Toton Lane","source":"Nottingham City Council Open Data","railway":"tram_stop","operator":"Nottingham Express Transit"}},
{"type":"Feature","geometry":{"type":"Point","coordinates":[-1.2623041,52.9184525]},"properties":{"name":"Toton Lane","source":"Nottingham City Council Open Data","railway":"tram_stop","operator":"Nottingham Express Transit"}},
{"type":"Feature","geometry":{"type":"Point","coordinates":[-1.2517278,52.9195215]},"properties":{"name":"Inham Road","source":"Nottingham City Council Open Data","railway":"tram_stop","operator":"Nottingham Express Transit"}},
{"type":"Feature","geometry":{"type":"Point","coordinates":[-1.2517358,52.9195595]},"properties":{"name":"Inham Road","source":"Nottingham City Council Open Data","railway":"tram_stop","operator":"Nottingham Express Transit"}},
{"type":"Feature","geometry":{"type":"Point","coordinates":[-1.2430866,52.9203098]},"properties":{"name":"Eskdale Drive","source":"Nottingham City Council Open Data","railway":"tram_stop","operator":"Nottingham Express Transit"}},
{"type":"Feature","geometry":{"type":"Point","coordinates":[-1.2431039,52.9203479]},"properties":{"name":"Eskdale Drive","source":"Nottingham City Council Open Data","railway":"tram_stop","operator":"Nottingham Express Transit"}},
{"type":"Feature","geometry":{"type":"Point","coordinates":[-1.2363429,52.9215465]},"properties":{"name":"Bramcote Lane","source":"Nottingham City Council Open Data","railway":"tram_stop","operator":"Nottingham Express Transit"}},
{"type":"Feature","geometry":{"type":"Point","coordinates":[-1.2363139,52.9215124]},"properties":{"name":"Bramcote Lane","source":"Nottingham City Council Open Data","railway":"tram_stop","operator":"Nottingham Express Transit"}},
{"type":"Feature","geometry":{"type":"Point","coordinates":[-1.2312295,52.9226095]},"properties":{"name":"Cator Lane","source":"Nottingham City Council Open Data","railway":"tram_stop","operator":"Nottingham Express Transit"}},
{"type":"Feature","geometry":{"type":"Point","coordinates":[-1.2312379,52.9226473]},"properties":{"name":"Cator Lane","source":"Nottingham City Council Open Data","railway":"tram_stop","operator":"Nottingham Express Transit"}},
{"type":"Feature","geometry":{"type":"Point","coordinates":[-1.2233009,52.921247]},"properties":{"name":"High Road - Central College","source":"Nottingham City Council Open Data","railway":"tram_stop","operator":"Nottingham Express Transit"}},
{"type":"Feature","geometry":{"type":"Point","coordinates":[-1.2233332,52.9212731]},"properties":{"name":"High Road - Central College","source":"Nottingham City Council Open Data","railway":"tram_stop","operator":"Nottingham Express Transit"}},
{"type":"Feature","geometry":{"type":"Point","coordinates":[-1.2202987,52.9225994]},"properties":{"name":"Chilwell Road","source":"Nottingham City Council Open Data","railway":"tram_stop","operator":"Nottingham Express Transit","naptan:NaptanCode":"ntsjmatm"}},
{"type":"Feature","geometry":{"type":"Point","coordinates":[-1.2146974,52.9251387]},"properties":{"name":"Beeston Centre","naptan:NaptanCode":"ntsjmapt","operator":"Nottingham Express Transit","public_transport":"stop_position","railway":"tram_stop","source":"Nottingham City Council Open Data","tram":"yes"}},
{"type":"Feature","geometry":{"type":"Point","coordinates":[-1.2149751,52.9256099]},"properties":{"name":"Beeston Centre","naptan:NaptanCode":"ntsjmapm","operator":"Nottingham Express Transit","public_transport":"stop_position","railway":"tram_stop","source":"Nottingham City Council Open Data","tram":"yes"}},
{"type":"Feature","geometry":{"type":"Point","coordinates":[-1.2090295,52.9278206]},"properties":{"name":"Middle Street","naptan:NaptanCode":"ntsjmawp","operator":"Nottingham Express Transit","public_transport":"stop_position","railway":"tram_stop","source":"Nottingham City Council Open Data","tram":"yes"}},
{"type":"Feature","geometry":{"type":"Point","coordinates":[-1.209066,52.9278881]},"properties":{"name":"Middle Street","naptan:NaptanCode":"ntsjmawm","operator":"Nottingham Express Transit","public_transport":"stop_position","railway":"tram_stop","source":"Nottingham City Council Open Data","tram":"yes"}},
{"type":"Feature","geometry":{"type":"Point","coordinates":[-1.2024129,52.9321823]},"properties":{"name":"University Boulevard","operator":"Nottingham Express Transit","public_transport":"stop_position","railway":"tram_stop","source":"Nottingham City Council Open Data","tram":"yes"}},
{"type":"Feature","geometry":{"type":"Point","coordinates":[-1.20204,52.932217]},"properties":{"name":"University Boulevard","operator":"Nottingham Express Transit","public_transport":"stop_position","railway":"tram_stop","source":"Nottingham City Council Open Data","tram":"yes"}},
{"type":"Feature","geometry":{"type":"Point","coordinates":[-1.1883309,52.9372209]},"properties":{"name":"University of Nottingham","source":"Nottingham City Council Open Data","railway":"tram_stop","operator":"Nottingham Express Transit"}},
{"type":"Feature","geometry":{"type":"Point","coordinates":[-1.1883596,52.9372486]},"properties":{"name":"University of Nottingham","source":"Nottingham City Council Open Data","railway":"tram_stop","operator":"Nottingham Express Transit"}},
{"type":"Feature","geometry":{"type":"Point","coordinates":[-1.1768334,52.9438364]},"properties":{"name":"Gregory Street","source":"Nottingham City Council Open Data","railway":"tram_stop","operator":"Nottingham Express Transit"}},
{"type":"Feature","geometry":{"type":"Point","coordinates":[-1.1651899,52.9418247]},"properties":{"name":"NG2","source":"Nottingham City Council Open Data","railway":"tram_stop","operator":"Nottingham Express Transit"}},
{"type":"Feature","geometry":{"type":"Point","coordinates":[-1.1651907,52.9418638]},"properties":{"name":"NG2","source":"Nottingham City Council Open Data","railway":"tram_stop","operator":"Nottingham Express Transit"}},
{"type":"Feature","geometry":{"type":"Point","coordinates":[-1.1568576,52.9433357]},"properties":{"name":"Meadows Way West","operator":"Nottingham Express Transit","public_transport":"stop_position","railway":"tram_stop","source":"Nottingham City Council Open Data","tram":"yes"}},
{"type":"Feature","geometry":{"type":"Point","coordinates":[-1.1564792,52.9434425]},"properties":{"name":"Meadows Way West","operator":"Nottingham Express Transit","public_transport":"stop_position","railway":"tram_stop","source":"Nottingham City Council Open Data","tram":"yes"}},
{"type":"Feature","geometry":{"type":"Point","coordinates":[-1.1881669,52.8969616]},"properties":{"name":"Summerwood Lane","source":"Nottingham City Council Open Data","railway":"tram_stop","operator":"Nottingham Express Transit"}},
{"type":"Feature","geometry":{"type":"Point","coordinates":[-1.1582957,52.9146692]},"properties":{"name":"Ruddington Lane","source":"Nottingham City Council Open Data","railway":"tram_stop","operator":"Nottingham Express Transit"}},
{"type":"Feature","geometry":{"type":"Point","coordinates":[-1.1932064,52.896396]},"properties":{"name":"Clifton South","source":"Nottingham City Council Open Data","railway":"tram_stop","operator":"Nottingham Express Transit"}},
{"type":"Feature","geometry":{"type":"Point","coordinates":[-1.1747984,52.9067551]},"properties":{"name":"Rivergreen","source":"Nottingham City Council Open Data","railway":"tram_stop","operator":"Nottingham Express Transit"}},
{"type":"Feature","geometry":{"type":"Point","coordinates":[-1.1557371,52.9356196]},"properties":{"name":"Wilford Village","operator":"Nottingham Express Transit","railway":"tram_stop","source":"Nottingham City Council Open Data"}},
{"type":"Feature","geometry":{"type":"Point","coordinates":[-1.1537773,52.9389516]},"properties":{"name":"Meadows Embankment","source":"Nottingham City Council Open Data","railway":"tram_stop","operator":"Nottingham Express Transit","construction":"tram_stop"}},
{"type":"Feature","geometry":{"type":"Point","coordinates":[-1.1504998,52.9426003]},"properties":{"name":"Queens Walk","note:name":"no apostrophy","public_transport":"stop_position","railway":"tram_stop","tram":"yes"}},
{"type":"Feature","geometry":{"type":"Point","coordinates":[-1.1503036,52.942892]},"properties":{"name":"Queens Walk","public_transport":"stop_position","railway":"tram_stop","tram":"yes"}},
{"type":"Feature","geometry":{"type":"Point","coordinates":[-1.1535784,52.9392078]},"properties":{"name":"Meadows Embankment","source":"Nottingham City Council Open Data","railway":"tram_stop","operator":"Nottingham Express Transit"}},
{"type":"Feature","geometry":{"type":"Point","coordinates":[-1.1575144,52.9188907]},"properties":{"name":"Compton Acres","source":"Nottingham City Council Open Data","railway":"tram_stop","operator":"Nottingham Express Transit"}},
{"type":"Feature","geometry":{"type":"Point","coordinates":[-1.1574936,52.9192723]},"properties":{"name":"Compton Acres","source":"Nottingham City Council Open Data","railway":"tram_stop","operator":"Nottingham Express Transit"}},
{"type":"Feature","geometry":{"type":"Point","coordinates":[-1.1877389,52.8969761]},"properties":{"name":"Summerwood Lane","source":"Nottingham City Council Open Data","railway":"tram_stop","operator":"Nottingham Express Transit"}},
{"type":"Feature","geometry":{"type":"Point","coordinates":[-1.1926169,52.8966874]},"properties":{"name":"Clifton South","source":"Nottingham City Council Open Data","railway":"tram_stop","operator":"Nottingham Express Transit"}},
{"type":"Feature","geometry":{"type":"Point","coordinates":[-1.1499669,52.9530977]},"properties":{"local_ref":"NET05","name":"Old Market Square","naptan:AtcoCode":"3390NET05","naptan:Bearing":"E","naptan:CommonName":"Old Market Square Tram Stop","naptan:Indicator":"Stop NET05","naptan:Landmark":"Old Market Square","naptan:NaptanCode":"ntmajwjw","naptan:PlusbusZoneRef":"NTNG","naptan:Street":"South Parade","naptan:verified":"yes","public_transport":"stop_position","railway":"tram_stop","source:naptan":"naptan_import","tram":"yes","wheelchair":"yes"}}
]}
