{"type":"FeatureCollection","features":[
{"type":"Feature","geometry":{"type":"Point","coordinates":[-1.7858762,51.5656526]},"properties":{"name":"Swindon","network":"National Rail","railway":"station","ref:crs":"SWI","operator":"First Great Western","wikidata":"Q3244572","platforms":"4","wikipedia":"en:Swindon railway station","wheelchair":"yes","naptan:AtcoCode":"9100SDON","toilets:wheelchair":"yes"}},
{"type":"Feature","geometry":{"type":"Point","coordinates":[-0.0269749,52.0532089]},"properties":{"name":"Royston","naptan:AtcoCode":"9100ROYSTON","network":"National Rail","public_transport":"station","railway":"station","ref:crs":"RYS","wikidata":"Q2034540","wikipedia":"en:Royston railway station"}},
{"type":"Feature","geometry":{"type":"Point","coordinates":[-1.5049707,50.8550478]},"properties":{"name":"Beaulieu Road","network":"National Rail","railway":"station","ref:crs":"BEU","wikidata":"Q3095938","wikipedia":"en:Beaulieu Road railway station","postal_code":"SO42 7YQ","naptan:AtcoCode":"9100BLIEURD"}},
{"type":"Feature","geometry":{"type":"Point","coordinates":[-1.610086,50.7846689]},"properties":{"name":"Sway","network":"National Rail","railway":"station","ref:crs":"SWY","wikidata":"Q2441290","wikipedia":"en:Sway railway station","naptan:AtcoCode":"9100SWAY","public_transport":"station"}},
{"type":"Feature","geometry":{"type":"Point","coordinates":[-1.6576697,50.7557623]},"properties":{"name":"New Milton","network":"National Rail","railway":"station","ref:crs":"NWM","wikidata":"Q1913828","wikipedia":"en:New Milton railway station","naptan:AtcoCode":"9100NMILTON"}},
{"type":"Feature","geometry":{"type":"Point","coordinates":[-1.5475333,52.3993806]},"properties":{"name":"Canley","naptan:AtcoCode":"9100CANLEY","network":"National Rail","public_transport":"station","railway":"station","ref:crs":"CNL","source":"NPE","west_midlands_fare_zone":"5","wikidata":"Q2317360","wikipedia":"en:Canley railway station"}},
{"type":"Feature","geometry":{"type":"Point","coordinates":[-1.480623,53.6628109]},"properties":{"name":"Sandal and Agbrigg","naptan:AtcoCode":"9100SABR","network":"National Rail","public_transport":"station","railway":"station","ref:crs":"SNA","wikidata":"Q2018294","wikipedia":"en:Sandal and Agbrigg railway station"}},
{"type":"Feature","geometry":{"type":"Point","coordinates":[-0.6762814,52.3037832]},"properties":{"name":"Wellingborough","train":"yes","network":"National Rail","railway":"station","ref:crs":"WEL","wikidata":"Q2562129","wikipedia":"en:Wellingborough railway station","wheelchair":"yes","naptan:AtcoCode":"9100WLNGBRO","public_transport":"station","wikimedia_commons":"Category:Wellingborough railway station"}},
{"type":"Feature","geometry":{"type":"Point","coordinates":[-1.2143782,53.853331]},"properties":{"name":"Ulleskelf","source":"npe","network":"National Rail","railway":"station","ref:crs":"ULL","wikidata":"Q951589","wikipedia":"en:Ulleskelf railway station","naptan:AtcoCode":"9100ULESKLF","public_transport":"station"}},
{"type":"Feature","geometry":{"type":"Point","coordinates":[-1.1800228,53.5720808]},"properties":{"name":"Adwick","source":"NPE","network":"National Rail","railway":"station","ref:crs":"AWK","wikidata":"Q2325641","wikipedia":"en:Adwick railway station","wheelchair":"yes","naptan:AtcoCode":"9100ADWICK","internet_access:fee":"yes"}},
{"type":"Feature","geometry":{"type":"Point","coordinates":[-1.4276607,53.4986192]},"properties":{"name":"Elsecar","source":"NPE","network":"National Rail","railway":"station","ref:crs":"ELR","wikidata":"Q3287228","platforms":"2","wikipedia":"en:Elsecar railway station","naptan:AtcoCode":"9100ELSC"}},
{"type":"Feature","geometry":{"type":"Point","coordinates":[-1.5317517,53.5443196]},"properties":{"name":"Dodworth","source":"NPE","network":"National Rail","railway":"station","ref:crs":"DOD","wikidata":"Q1996156","wikipedia":"en:Dodworth railway station","naptan:AtcoCode":"9100DODWRTH","public_transport":"station"}},
{"type":"Feature","geometry":{"type":"Point","coordinates":[-1.304972,50.8837098]},"properties":{"name":"Bursledon","naptan:AtcoCode":"9100BURSLDN","network":"National Rail","platforms":"1","public_transport":"station","railway":"station","ref:crs":"BUO","wikidata":"Q2219439","wikipedia":"en:Bursledon railway station"}},
{"type":"Feature","geometry":{"type":"Point","coordinates":[-0.4143441,51.3729077]},"properties":{"name":"Walton-on-Thames","network":"National Rail","railway":"station","ref:crs":"WAL","operator":"South Western Railway","wikidata":"Q2183741","wikipedia":"en:Walton-on-Thames railway station","naptan:AtcoCode":"9100WONT","public_transport":"station"}},
{"type":"Feature","geometry":{"type":"Point","coordinates":[-1.8392253,52.5285663]},"properties":{"name":"Erdington","network":"National Rail","railway":"station","ref:crs":"ERD","wikidata":"Q2415516","wikipedia":"en:Erdington railway station","naptan:AtcoCode":"9100ERDNGTN","west_midlands_fare_zone":"3"}},
{"type":"Feature","geometry":{"type":"Point","coordinates":[-1.8324576,52.5357946]},"properties":{"name":"Chester Road","network":"National Rail","railway":"station","ref:crs":"CRD","wikidata":"Q2405727","wikipedia":"en:Chester Road railway station","wheelchair":"yes","naptan:AtcoCode":"9100CHSRD","west_midlands_fare_zone":"3"}},
{"type":"Feature","geometry":{"type":"Point","coordinates":[-1.8252548,52.5647207]},"properties":{"name":"Sutton Coldfield","network":"National Rail","railway":"station","ref:crs":"SUT","wikidata":"Q525739","wikipedia":"en:Sutton Coldfield railway station","naptan:AtcoCode":"9100SUTCO","west_midlands_fare_zone":"4"}},
{"type":"Feature","geometry":{"type":"Point","coordinates":[-1.8527077,52.5153876]},"properties":{"name":"Gravelly Hill","network":"National Rail","railway":"station","ref:crs":"GVH","wikidata":"Q2098592","wikipedia":"en:Gravelly Hill railway station","naptan:AtcoCode":"9100GRAVLYH","west_midlands_fare_zone":"2"}},
{"type":"Feature","geometry":{"type":"Point","coordinates":[-2.2130325,53.4711176]},"properties":{"name":"Ardwick","network":"National Rail","railway":"station","ref:crs":"ADK","wikidata":"Q4788330","wikipedia":"en:Ardwick railway station","description":"Ardwick Station has a very limited service. Two trains a day run towards the city on Monday to Friday mornings, and two trains away from the city in the evening. No service at weekends.","naptan:AtcoCode":"9100ARDWICK"}},
{"type":"Feature","geometry":{"type":"Point","coordinates":[-1.4931284,50.9926427]},"properties":{"name":"Romsey","naptan:AtcoCode":"9100ROMSEY","network":"National Rail","public_transport":"station","railway":"station","ref:crs":"ROM","wikidata":"Q1872195","wikipedia":"en:Romsey railway station"}},
{"type":"Feature","geometry":{"type":"Point","coordinates":[-1.5468958,51.033863]},"properties":{"name":"Mottisfont & Dunbridge","naptan:AtcoCode":"9100MOTFONT","network":"National Rail","railway":"station","ref:crs":"DBG","wikidata":"Q6918669","wikipedia":"en:Mottisfont & Dunbridge railway station"}},
{"type":"Feature","geometry":{"type":"Point","coordinates":[-0.2262886,51.5060722]},"properties":{"fare_zone":"2","line":"Hammersmith & City;Circle","name":"Shepherd's Bush Market","name:ru":"Шепердс-Буш-Маркет","network":"London Underground","public_transport":"station","railway":"station","source_ref":"http://en.wikipedia.org/wiki/List_of_London_Underground_stations","station":"subway","subway":"yes","wheelchair":"no","wikidata":"Q1857909","wikipedia":"en:Shepherd's Bush Market tube station"}},
{"type":"Feature","geometry":{"type":"Point","coordinates":[-0.722846,51.5183532]},"properties":{"layer":"3","name":"Maidenhead","naptan:AtcoCode":"9100MDNHEAD","network":"National Rail;TfL Rail","operator":"Great Western Railway","public_transport":"station","railway":"station","ref:crs":"MAI","wikidata":"Q1801859","wikipedia":"en:Maidenhead railway station"}},
{"type":"Feature","geometry":{"type":"Point","coordinates":[-0.4718293,51.5097364]},"properties":{"name":"West Drayton","network":"National Rail;TfL Rail","railway":"station","ref:crs":"WDT","operator":"TfL Rail","wikidata":"Q2033143","wikipedia":"en:West Drayton railway station","source_ref":"http://en.wikipedia.org/wiki/List_of_London_railway_stations","naptan:AtcoCode":"9100WDRYTON","public_transport":"station"}},
{"type":"Feature","geometry":{"type":"Point","coordinates":[-0.192318,51.6008355]},"properties":{"fare_zone":"4","line":"Northern","name":"Finchley Central","network":"London Underground","old_name":"Finchley (Church End)","public_transport":"station","railway":"station","station":"subway","subway":"yes","wheelchair":"yes","wikidata":"Q1416721","wikipedia":"en:Finchley Central tube station"}},
{"type":"Feature","geometry":{"type":"Point","coordinates":[-1.2944932,50.9323988]},"properties":{"name":"Hedge End","network":"National Rail","railway":"station","ref:crs":"HDE","wikidata":"Q2686491","wikipedia":"en:Hedge End railway station","naptan:AtcoCode":"9100HEDGEND","public_transport":"station"}},
{"type":"Feature","geometry":{"type":"Point","coordinates":[-1.8383384,52.5925882]},"properties":{"name":"Butlers Lane","network":"National Rail","railway":"station","ref:crs":"BUL","wikidata":"Q5002705","wikipedia":"en:Butlers Lane railway station","naptan:AtcoCode":"9100BTLRSLA","west_midlands_fare_zone":"5"}},
{"type":"Feature","geometry":{"type":"Point","coordinates":[-0.7320452,52.3934872]},"properties":{"name":"Kettering","train":"yes","network":"National Rail","railway":"station","ref:crs":"KET","wikidata":"Q2284587","wikipedia":"en:Kettering railway station","naptan:AtcoCode":"9100KETR","public_transport":"station","wikimedia_commons":"Category:Kettering railway station"}},
{"type":"Feature","geometry":{"type":"Point","coordinates":[-1.1566522,50.7242115]},"properties":{"name":"Ryde St John's Road","image":"File:Ryde St. John's Road Railway station 1971.jpg","network":"National Rail","railway":"station","ref:crs":"RYR","operator":"Island Line Trains","wikidata":"Q4567463","wikipedia":"en:Ryde St John's Road railway station","naptan:AtcoCode":"9100RYDS"}},
{"type":"Feature","geometry":{"type":"Point","coordinates":[-1.1386289,50.6782995]},"properties":{"name":"Brading","image":"File:Brading station, Isle of Wight.jpg","network":"National Rail","railway":"station","ref:crs":"BDN","wikidata":"Q2274755","wikipedia":"en:Brading railway station","naptan:AtcoCode":"9100BRDING"}},
{"type":"Feature","geometry":{"type":"Point","coordinates":[-1.1550109,50.7114593]},"properties":{"name":"Smallbrook Junction","note":"No road/path access - open for interchange only","network":"National Rail","railway":"station","ref:crs":"SAB","operator":"Island Line Trains","wikidata":"Q1868757","wikipedia":"en:Smallbrook Junction railway station","naptan:AtcoCode":"9100SMALBRK"}},
{"type":"Feature","geometry":{"type":"Point","coordinates":[-1.2146592,50.7054346]},"properties":{"addr:city":"Havenstreet, near Ryde","addr:street":"Main Road","name":"Havenstreet","railway":"station","usage":"tourism","wikidata":"Q5683726"}},
{"type":"Feature","geometry":{"type":"Point","coordinates":[-1.634563,51.0424158]},"properties":{"name":"Dean","network":"National Rail","railway":"station","ref:crs":"DEN","wikidata":"Q671580","wikipedia":"en:Dean railway station","naptan:AtcoCode":"9100DEAN"}},
{"type":"Feature","geometry":{"type":"Point","coordinates":[-2.5308703,51.7141619]},"properties":{"name":"Lydney","source":"NPE","network":"National Rail","railway":"station","ref:crs":"LYD","operator":"Trafnidiaeth Cymru","wikipedia":"en:Lydney railway station","wheelchair":"yes","operator:cy":"Trafnidiaeth Cymru","operator:en":"Transport for Wales","naptan:AtcoCode":"9100LYDNEY"}},
{"type":"Feature","geometry":{"type":"Point","coordinates":[-1.2590525,50.9163612]},"properties":{"name":"Botley","network":"National Rail","railway":"station","ref:crs":"BOE","wikidata":"Q2041220","addr:city":"Eastleigh","wikipedia":"en:Botley railway station","addr:street":"Station Hill","addr:postcode":"SO30 2DY","addr:housename":"Botley Railway Station","naptan:AtcoCode":"9100BOTLEY","public_transport":"station"}},
{"type":"Feature","geometry":{"type":"Point","coordinates":[-1.2365831,51.653894]},"properties":{"name":"Culham","source":"NPE","network":"National Rail","railway":"station","ref:crs":"CUM","wikidata":"Q2740729","wikipedia":"en:Culham railway station","naptan:AtcoCode":"9100CULHAM"}},
{"type":"Feature","geometry":{"type":"Point","coordinates":[-1.2424732,51.6395297]},"properties":{"name":"Appleford","source":"NPE","network":"National Rail","railway":"station","ref:crs":"APF","wikidata":"Q2550440","wikipedia":"en:Appleford railway station","naptan:AtcoCode":"9100APPLEFD"}},
{"type":"Feature","geometry":{"type":"Point","coordinates":[0.1057186,51.394738]},"properties":{"name":"St Mary Cray","naptan:AtcoCode":"9100STMRYC","network":"National Rail","operator":"Southeastern","public_transport":"station","railway":"station","ref:crs":"SMY","toilets:wheelchair":"no","wheelchair":"no","wikidata":"Q2349500","wikipedia":"en:St Mary Cray railway station"}},
{"type":"Feature","geometry":{"type":"Point","coordinates":[-1.328881,50.8712806]},"properties":{"name":"Hamble","network":"National Rail","railway":"station","ref:crs":"HME","wikidata":"Q927502","wikipedia":"en:Hamble railway station","naptan:AtcoCode":"9100HMBLE"}},
{"type":"Feature","geometry":{"type":"Point","coordinates":[-2.602769,53.2662973]},"properties":{"name":"Acton Bridge","network":"National Rail","railway":"station","ref:crs":"ACB","uic_ref":"7000024","wikipedia":"en:Acton Bridge railway station","naptan:AtcoCode":"9100ACBG"}},
{"type":"Feature","geometry":{"type":"Point","coordinates":[-2.9329194,54.8905816]},"properties":{"name":"Carlisle","train":"yes","network":"National Rail","railway":"station","ref:crs":"CAR","wikidata":"Q2792535","wikipedia":"en:Carlisle railway station","naptan:AtcoCode":"9100CARLILE","public_transport":"station"}},
{"type":"Feature","geometry":{"type":"Point","coordinates":[-1.3940874,51.8326359]},"properties":{"name":"Combe","naptan:AtcoCode":"9100COMBE","network":"National Rail","railway":"station","ref:crs":"CME","wikidata":"Q2751535","wikipedia":"en:Combe railway station"}},
{"type":"Feature","geometry":{"type":"Point","coordinates":[-1.5924463,51.8658738]},"properties":{"name":"Shipton","network":"National Rail","railway":"station","ref:crs":"SIP","operator":"First Great Western","wikidata":"Q2202267","platforms":"2","wikipedia":"en:Shipton railway station","naptan:AtcoCode":"9100SPTN"}},
{"type":"Feature","geometry":{"type":"Point","coordinates":[-1.4696045,51.8528179]},"properties":{"name":"Finstock","network":"National Rail","railway":"station","ref:crs":"FIN","wikidata":"Q2368596","wikipedia":"en:Finstock railway station","naptan:AtcoCode":"9100FINSTCK"}},
{"type":"Feature","geometry":{"type":"Point","coordinates":[-2.8912865,53.2081213]},"properties":{"name":"Bache","naptan:AtcoCode":"9100BACHE","network":"National Rail","public_transport":"station","railway":"station","ref:crs":"BAC","wikipedia":"en:Bache railway station"}},
{"type":"Feature","geometry":{"type":"Point","coordinates":[-1.1247314,50.8488586]},"properties":{"name":"Portchester","naptan:AtcoCode":"9100PCHESTR","network":"National Rail","operator":"South West Trains","public_transport":"station","railway":"station","ref:crs":"PTC","wikidata":"Q1951021","wikipedia":"en:Portchester railway station"}},
{"type":"Feature","geometry":{"type":"Point","coordinates":[-1.1616799,51.0883249]},"properties":{"name":"Alresford","usage":"tourism","railway":"station","wikidata":"Q4735710"}},
{"type":"Feature","geometry":{"type":"Point","coordinates":[-0.7784454,54.2472695]},"properties":{"addr:housename":"Pickering Station","addr:postcode":"YO18 7AJ","addr:street":"Park Street","name":"Pickering","railway":"station","usage":"tourism","website":"https://www.nymr.co.uk/","wikidata":"Q7190832"}},
{"type":"Feature","geometry":{"type":"Point","coordinates":[-0.7443884,54.3082776]},"properties":{"name":"Levisham","usage":"tourism","railway":"station","wikidata":"Q6535693","wikipedia":"en:Levisham railway station","ref:tiploc":"PICKLEV"}},
{"type":"Feature","geometry":{"type":"Point","coordinates":[-0.7177548,54.3424545]},"properties":{"name":"Newton Dale","usage":"tourism","railway":"station"}},
{"type":"Feature","geometry":{"type":"Point","coordinates":[-0.7120022,54.4004864]},"properties":{"name":"Goathland Station (NYMR)","usage":"tourism","railway":"station","wikidata":"Q5575368","wikipedia":"en:Goathland railway station"}},
{"type":"Feature","geometry":{"type":"Point","coordinates":[-0.7248845,54.4360239]},"properties":{"name":"Grosmont","usage":"tourism","railway":"station"}},
{"type":"Feature","geometry":{"type":"Point","coordinates":[-2.2808342,54.0669551]},"properties":{"name":"Settle","route":"Settle to Carlisle Railway","source":"GPX + NPE","network":"National Rail","railway":"station","ref:crs":"SET","wikidata":"Q2210148","wikipedia":"en:Settle railway station","postal_code":"BD24 9AA","naptan:AtcoCode":"9100SETTLE","public_transport":"station"}},
{"type":"Feature","geometry":{"type":"Point","coordinates":[-1.743655,52.5185309]},"properties":{"name":"Water Orton","network":"National Rail","railway":"station","ref:crs":"WTO","wikidata":"Q2674112","wikipedia":"en:Water Orton railway station","naptan:AtcoCode":"9100WTRORTN"}},
{"type":"Feature","geometry":{"type":"Point","coordinates":[-2.9431266,53.2853649]},"properties":{"name":"Little Sutton","network":"National Rail","railway":"station","ref:crs":"LTT","wikipedia":"en:Little Sutton railway station","naptan:AtcoCode":"9100LTLSUTN"}},
{"type":"Feature","geometry":{"type":"Point","coordinates":[-2.9241632,53.2840557]},"properties":{"name":"Overpool","network":"National Rail","railway":"station","ref:crs":"OVE","wikipedia":"en:Overpool railway station","naptan:AtcoCode":"9100OPOL"}},
{"type":"Feature","geometry":{"type":"Point","coordinates":[-0.248872,51.6126434]},"properties":{"name":"Mill Hill Broadway","source":"GPS waypoint","network":"National Rail","railway":"station","ref:crs":"MIL","operator":"Thameslink","wikidata":"Q2396825","wikipedia":"en:Mill Hill Broadway railway station","wheelchair":"no","naptan:AtcoCode":"9100MLHB","public_transport":"station","toilets:wheelchair":"no"}},
{"type":"Feature","geometry":{"type":"Point","coordinates":[-0.0261521,51.4444696]},"properties":{"name":"Catford","train":"yes","network":"National Rail","railway":"station","ref:crs":"CTF","wikidata":"Q2401174","wikipedia":"en:Catford railway station","source_ref":"http://en.wikipedia.org/wiki/List_of_London_railway_stations","wheelchair":"no","naptan:AtcoCode":"9100CATFORD","public_transport":"station"}},
{"type":"Feature","geometry":{"type":"Point","coordinates":[-1.0673875,50.8418849]},"properties":{"alt_name":"Cosham Railway Station","name":"Cosham","naptan:AtcoCode":"9100COSHAM","network":"National Rail","operator":"South West Trains","public_transport":"station","railway":"station","ref:crs":"CSA","source":"NPE","wikidata":"Q5172759","wikipedia":"en:Cosham railway station"}},
{"type":"Feature","geometry":{"type":"Point","coordinates":[-2.9425764,53.2602417]},"properties":{"name":"Capenhurst","network":"National Rail","railway":"station","ref:crs":"CPU","wikipedia":"en:Capenhurst railway station","naptan:AtcoCode":"9100CPNHRST"}},
{"type":"Feature","geometry":{"type":"Point","coordinates":[-2.8960456,53.2821114]},"properties":{"name":"Ellesmere Port","train":"yes","network":"National Rail","railway":"station","ref:crs":"ELP","wikidata":"Q5365264","wikipedia":"en:Ellesmere Port railway station","naptan:AtcoCode":"9100ELSMPRT","public_transport":"station"}},
{"type":"Feature","geometry":{"type":"Point","coordinates":[-2.0549484,50.6382716]},"properties":{"name":"Corfe Castle","network":"National Rail","public_transport":"station","railway":"station","ref:crs":"CFC","usage":"tourism","wikidata":"Q5170476","wikipedia":"en:Corfe Castle railway station"}},
{"type":"Feature","geometry":{"type":"Point","coordinates":[-2.0266209,50.619793]},"properties":{"name":"Harman's Cross","railway":"station","usage":"tourism","wikidata":"Q5659026"}},
{"type":"Feature","geometry":{"type":"Point","coordinates":[-1.9805576,50.6130813]},"properties":{"name":"Herston Halt","railway":"station","request_stop":"yes","usage":"tourism","wikidata":"Q15223746"}},
{"type":"Feature","geometry":{"type":"Point","coordinates":[-0.3084153,51.0794524]},"properties":{"name":"Littlehaven","naptan:AtcoCode":"9100LHVN","network":"National Rail","old_name":"Littlehaven Halt","operator":"Southern","public_transport":"station","railway":"station","ref:crs":"LVN","wikidata":"Q2327144","wikipedia":"en:Littlehaven railway station"}},
{"type":"Feature","geometry":{"type":"Point","coordinates":[-0.263021,51.0959596]},"properties":{"name":"Faygate","source":"NPE","network":"National Rail","railway":"station","ref:crs":"FGT","wikidata":"Q2337132","wikipedia":"en:Faygate railway station","naptan:AtcoCode":"9100FAYGATE"}},
{"type":"Feature","geometry":{"type":"Point","coordinates":[-0.2145586,51.1155367]},"properties":{"name":"Ifield","network":"National Rail","railway":"station","ref:crs":"IFI","operator":"Southern","wikidata":"Q4933252","wikipedia":"en:Ifield railway station","naptan:AtcoCode":"9100IFIELD"}},
{"type":"Feature","geometry":{"type":"Point","coordinates":[-0.1610188,51.1567237]},"properties":{"addr:postcode":"RH6 0RD","name":"Gatwick Airport","naptan:AtcoCode":"9100GTWK","network":"National Rail","old_name":"Gatwick Racecourse","public_transport":"station","railway":"station","ref:crs":"GTW","wheelchair":"yes","wikidata":"Q1495884","wikipedia":"en:Gatwick Airport railway station"}},
{"type":"Feature","geometry":{"type":"Point","coordinates":[-0.1457168,50.9247179]},"properties":{"name":"Hassocks","network":"National Rail","railway":"station","ref:crs":"HSK","operator":"Southern","wikidata":"Q2831648","wikipedia":"en:Hassocks railway station","addr:postcode":"BN6 8JD","naptan:AtcoCode":"9100HASOCKS"}},
{"type":"Feature","geometry":{"type":"Point","coordinates":[-1.2376466,51.826163]},"properties":{"name":"Islip","network":"National Rail","railway":"station","ref:crs":"ISP","wikidata":"Q1847555","wikipedia":"en:Islip railway station","naptan:AtcoCode":"9100ISLIP"}},
{"type":"Feature","geometry":{"type":"Point","coordinates":[-1.1493729,51.8924363]},"properties":{"name":"Bicester Village","network":"National Rail","railway":"station","ref:crs":"BIT","wikidata":"Q1873632","note:name":"used to be Bicester Town, don't ask","wikipedia":"en:Bicester Village railway station","postal_code":"OX26 6HU","naptan:AtcoCode":"9100BCSTRTN","public_transport":"station"}},
{"type":"Feature","geometry":{"type":"Point","coordinates":[-0.1561275,51.4922957]},"properties":{"fare_zone":"1","line":"District;Circle","name":"Sloane Square","name:ru":"Слоун-сквер","network":"London Underground","platforms":"2","public_transport":"station","railway":"station","station":"subway","subway":"yes","train":"yes","wheelchair":"no","wikidata":"Q1530578","wikipedia":"en:Sloane Square tube station"}},
{"type":"Feature","geometry":{"type":"Point","coordinates":[-0.8428255,51.4117503]},"properties":{"name":"Wokingham","network":"National Rail","railway":"station","ref:crs":"WKM","operator":"South West Trains","wikidata":"Q2588372","wikipedia":"en:Wokingham railway station","naptan:AtcoCode":"9100WOKNGHM"}},
{"type":"Feature","geometry":{"type":"Point","coordinates":[-0.776776,51.3315657]},"properties":{"name":"Blackwater","naptan:AtcoCode":"9100BCKWATR","network":"National Rail","operator":"First Great Western","public_transport":"station","railway":"station","ref:crs":"BAW","train":"yes","wikidata":"Q2760814","wikipedia":"en:Blackwater railway station"}},
{"type":"Feature","geometry":{"type":"Point","coordinates":[-1.5639687,51.8674576]},"properties":{"name":"Ascott-under-Wychwood","naptan:AtcoCode":"9100ASCTUWD","network":"National Rail","platforms":"2","railway":"station","ref:crs":"AUW","wikidata":"Q4804064","wikipedia":"en:Ascott-under-Wychwood railway station"}},
{"type":"Feature","geometry":{"type":"Point","coordinates":[-2.0678139,51.9243306]},"properties":{"name":"Cheltenham Racecourse","railway":"station","source":"npe","usage":"tourism","wikipedia":"en:Cheltenham Racecourse railway station"}},
{"type":"Feature","geometry":{"type":"Point","coordinates":[-1.3416249,50.8749]},"properties":{"name":"Netley","naptan:AtcoCode":"9100NETLEY","network":"National Rail","public_transport":"station","railway":"station","ref:crs":"NTL","wikidata":"Q2555327","wikipedia":"en:Netley railway station"}},
{"type":"Feature","geometry":{"type":"Point","coordinates":[-2.7711482,53.2752889]},"properties":{"name":"Helsby","network":"National Rail","railway":"station","ref:crs":"HSB","wikipedia":"en:Helsby railway station","naptan:AtcoCode":"9100HELSBY","public_transport":"station"}},
{"type":"Feature","geometry":{"type":"Point","coordinates":[-2.5623732,51.5257913]},"properties":{"name":"Patchway","network":"National Rail","railway":"station","ref:crs":"PWY","wikidata":"Q2385086","wikipedia":"en:Patchway railway station","postal_code":"BS34 6LP","naptan:AtcoCode":"9100PATCHWY"}},
{"type":"Feature","geometry":{"type":"Point","coordinates":[-1.7136258,50.752603]},"properties":{"name":"Hinton Admiral","naptan:AtcoCode":"9100HINTONA","network":"National Rail","public_transport":"station","railway":"station","ref:crs":"HNA","source":"NPE","wikidata":"Q1968589","wikipedia":"en:Hinton Admiral railway station"}},
{"type":"Feature","geometry":{"type":"Point","coordinates":[-2.4321734,51.5413993]},"properties":{"name":"Yate","naptan:AtcoCode":"9100YATE","network":"National Rail","postal_code":"BS37 5JF","public_transport":"station","railway":"station","ref:crs":"YAE","wikidata":"Q3900748","wikipedia":"en:Yate railway station"}},
{"type":"Feature","geometry":{"type":"Point","coordinates":[-1.0732559,50.7964461]},"properties":{"name":"Fratton","network":"National Rail","railway":"station","ref:crs":"FTN","operator":"South Westen Railway","wikidata":"Q2618118","wikipedia":"en:Fratton railway station","wheelchair":"yes","naptan:AtcoCode":"9100FRATTON","public_transport":"station"}},
{"type":"Feature","geometry":{"type":"Point","coordinates":[-1.1499566,51.9034655]},"properties":{"name":"Bicester North","network":"National Rail","railway":"station","ref:crs":"BCS","wikidata":"Q2184930","wikipedia":"en:Bicester North railway station","wheelchair":"yes","postal_code":"OX26 6EF","naptan:AtcoCode":"9100BCSTN","public_transport":"station"}},
{"type":"Feature","geometry":{"type":"Point","coordinates":[-0.4422487,51.2192418]},"properties":{"name":"Gomshall","naptan:AtcoCode":"9100GOMSHAL","network":"National Rail","public_transport":"station","railway":"station","ref:crs":"GOM","wikidata":"Q3199982","wikipedia":"en:Gomshall railway station"}},
{"type":"Feature","geometry":{"type":"Point","coordinates":[-2.2143184,51.3200104]},"properties":{"name":"Trowbridge","naptan:AtcoCode":"9100TRWBRDG","network":"National Rail","public_transport":"station","railway":"station","ref:crs":"TRO","source":"NPE","wikidata":"Q2974092","wikipedia":"en:Trowbridge railway station"}},
{"type":"Feature","geometry":{"type":"Point","coordinates":[0.1526024,51.1284231]},"properties":{"addr:postcode":"TN3 9TL","name":"Ashurst","naptan:AtcoCode":"9100ASHURST","network":"National Rail","public_transport":"station","railway":"station","ref:crs":"AHS","source":"gps","wikidata":"Q2393085","wikipedia":"en:Ashurst railway station"}},
{"type":"Feature","geometry":{"type":"Point","coordinates":[0.0639692,51.5084776]},"properties":{"light_rail":"yes","name":"Cyprus","network":"Docklands Light Railway","public_transport":"station","public_transport:version":"2","railway":"station","source_ref":"http://en.wikipedia.org/wiki/List_of_Docklands_Light_Railway_stations","station":"light_rail","wikidata":"Q599724","wikipedia":"en:Cyprus DLR Station"}},
{"type":"Feature","geometry":{"type":"Point","coordinates":[-0.2052902,51.4220721]},"properties":{"fare_zone":"3","line":"District","name":"Wimbledon","name:ru":"Уимблдон","naptan:AtcoCode":"9100WIMBLDN","network":"National Rail;London Underground;London Trams","operator":"South Western Railway","public_transport":"station","railway":"station","ref:crs":"WIM","source_ref":"https//en.wikipedia.org/wiki/List_of_London_Underground_stations","station":"subway","subway":"yes","train":"yes","tram":"yes","wikipedia":"en:Wimbledon station"}},
{"type":"Feature","geometry":{"type":"Point","coordinates":[-0.4801012,52.6478103]},"properties":{"name":"Stamford","naptan:AtcoCode":"9100STAMFD","network":"National Rail","operator":"CrossCountry Trains","postal_code":"PE9 2JL","public_transport":"station","railway":"station","ref:crs":"SMD","wikidata":"Q2661650","wikipedia":"en:Stamford railway station"}},
{"type":"Feature","geometry":{"type":"Point","coordinates":[-0.0952228,51.5118924]},"properties":{"fare_zone":"1","line":"District;Circle","name":"Mansion House","name:ru":"Мэншн Хаус","network":"London Underground","operator":"Transport for London","platforms":"3","public_transport":"station","railway":"station","source:name":"local knowledge","start_date":"1871-07-03","station":"subway","subway":"yes","wheelchair":"no","wikidata":"Q1477336","wikimedia_commons":"Category:Mansion House tube station","wikipedia":"en:Mansion House tube station"}},
{"type":"Feature","geometry":{"type":"Point","coordinates":[-1.2028067,52.5713504]},"properties":{"name":"Narborough","source":"survey","network":"National Rail","railway":"station","ref:crs":"NBR","wikidata":"Q1823442","wikipedia":"en:Narborough railway station","postal_code":"LE9 5HR","naptan:AtcoCode":"9100NARBRO"}},
{"type":"Feature","geometry":{"type":"Point","coordinates":[-1.9524816,53.8149218]},"properties":{"name":"Oxenhope","public_transport":"station","railway":"station","usage":"tourism","wikidata":"Q7115190","wikipedia":"en:Oxenhope railway station"}},
{"type":"Feature","geometry":{"type":"Point","coordinates":[-0.3592754,51.5575208]},"properties":{"name":"Northolt Park","network":"National Rail","railway":"station","ref:crs":"NLT","operator":"Chiltern Railways","wikidata":"Q2799274","wikipedia":"en:Northolt Park railway station","wheelchair":"limited","naptan:AtcoCode":"9100NTHOLTP","public_transport":"station"}},
{"type":"Feature","geometry":{"type":"Point","coordinates":[-0.3631762,51.5851618]},"properties":{"fare_zone":"5","line":"Metropolitan","name":"North Harrow","network":"London Underground","operator":"London Underground","public_transport":"station","railway":"station","station":"subway","subway":"yes","wikidata":"Q645943","wikipedia":"en:North Harrow tube station"}},
{"type":"Feature","geometry":{"type":"Point","coordinates":[0.1734867,51.1972229]},"properties":{"addr:postcode":"TN11 8JE","name":"Penshurst","naptan:AtcoCode":"9100PNSHRST","network":"National Rail","public_transport":"station","railway":"station","ref:crs":"PHR","wikidata":"Q2675582","wikipedia":"en:Penshurst railway station"}},
{"type":"Feature","geometry":{"type":"Point","coordinates":[-1.8262081,50.7312347]},"properties":{"name":"Pokesdown","source":"NPE","network":"National Rail","railway":"station","ref:crs":"POK","wikidata":"Q12066077","wikipedia":"en:Pokesdown railway station","naptan:AtcoCode":"9100POKSDWN"}},
{"type":"Feature","geometry":{"type":"Point","coordinates":[-1.9479055,50.7229373]},"properties":{"name":"Parkstone","source":"NPE","network":"National Rail","railway":"station","ref:crs":"PKS","wikidata":"Q7138723","wikipedia":"en:Parkstone railway station","addr:postcode":"BH14 8UD","naptan:AtcoCode":"9100PSTONE"}},
{"type":"Feature","geometry":{"type":"Point","coordinates":[-1.9196847,50.7269847]},"properties":{"name":"Branksome","source":"NPE","network":"National Rail","railway":"station","ref:crs":"BSM","wikidata":"Q4957509","wikipedia":"en:Branksome railway station","addr:postcode":"BH12 1DF","naptan:AtcoCode":"9100BRANKSM"}},
{"type":"Feature","geometry":{"type":"Point","coordinates":[-1.9836745,50.7189814]},"properties":{"name":"Poole","train":"yes","source":"NPE","network":"National Rail","railway":"station","ref:crs":"POO","wikidata":"Q7228632","wikipedia":"en:Poole railway station","wheelchair":"yes","surveillance":"outdoor","addr:postcode":"BH15 2BQ","naptan:AtcoCode":"9100POOLE","public_transport":"station"}},
{"type":"Feature","geometry":{"type":"Point","coordinates":[-2.077724,50.7114998]},"properties":{"name":"Holton Heath","source":"NPE","network":"National Rail","railway":"station","ref:crs":"HOL","wikidata":"Q2271679","wikipedia":"en:Holton Heath railway station","surveillance":"public","naptan:AtcoCode":"9100HOLTONH"}},
{"type":"Feature","geometry":{"type":"Point","coordinates":[-2.2404522,53.3485037]},"properties":{"name":"Styal","network":"National Rail","railway":"station","ref:crs":"SYA","wikipedia":"en:Styal railway station","naptan:AtcoCode":"9100STYAL"}},
{"type":"Feature","geometry":{"type":"Point","coordinates":[-0.7103717,51.5770779]},"properties":{"name":"Bourne End","fixme":"?NPE Shows this SW of current location","source":"NPE","network":"National Rail","railway":"station","ref:crs":"BNE","operator":"Great Western Railway","wikidata":"Q2018754","wikipedia":"en:Bourne End railway station","naptan:AtcoCode":"9100BORNEND","public_transport":"station"}},
{"type":"Feature","geometry":{"type":"Point","coordinates":[-0.3348748,51.5922178]},"properties":{"fare_zone":"5","line":"Bakerloo","name":"Harrow & Wealdstone","naptan:AtcoCode":"9100HROW","network":"London Underground;London Overground","network:subway":"London Underground","network:train":"London Overground;National Rail","operator":"London Underground","public_transport":"station","railway":"station","ref:crs":"HRW","source:network":"Sign","source_ref":"http://en.wikipedia.org/wiki/List_of_London_railway_stations;http://en.wikipedia.org/wiki/List_of_London_Underground_stations;http://en.wikipedia.org/wiki/London_Overground#Stations","station":"subway","subway":"yes","train":"yes","wheelchair":"yes","wikidata":"Q800896","wikipedia":"en:Harrow & Wealdstone station"}},
{"type":"Feature","geometry":{"type":"Point","coordinates":[-0.4378216,51.7064134]},"properties":{"name":"Kings Langley","source":"GPX + NPE","network":"National Rail","railway":"station","ref:crs":"KGL","operator":"London Northwestern Railway","wikidata":"Q2206088","wikipedia":"en:Kings Langley railway station","naptan:AtcoCode":"9100KLGL","public_transport":"station"}},
{"type":"Feature","geometry":{"type":"Point","coordinates":[0.3345214,53.1431867]},"properties":{"name":"Skegness","source":"NPE tracing","network":"National Rail","railway":"station","ref:crs":"SKG","wikipedia":"en:Skegness railway station","wheelchair":"yes","naptan:AtcoCode":"9100SKEGNES","public_transport":"station"}},
{"type":"Feature","geometry":{"type":"Point","coordinates":[0.2729912,53.1146157]},"properties":{"name":"Havenhouse","source":"NPE tracing","network":"National Rail","railway":"station","ref:crs":"HVN","wikidata":"Q2676343","wikipedia":"en:Havenhouse railway station","naptan:AtcoCode":"9100HAVENHS"}},
{"type":"Feature","geometry":{"type":"Point","coordinates":[0.2345366,53.105126]},"properties":{"name":"Wainfleet","source":"NPE tracing","network":"National Rail","railway":"station","ref:crs":"WFL","wikipedia":"en:Wainfleet railway station","naptan:AtcoCode":"9100WAINFLT"}},
{"type":"Feature","geometry":{"type":"Point","coordinates":[-0.0311968,52.9781191]},"properties":{"name":"Boston","source":"NPE tracing","name:lt":"Bostonas","network":"National Rail","railway":"station","ref:crs":"BSN","wikidata":"Q1812453","wikipedia":"en:Boston railway station","naptan:AtcoCode":"9100BOSTON"}},
{"type":"Feature","geometry":{"type":"Point","coordinates":[-0.2038369,51.2418815]},"properties":{"addr:city":"Reigate","addr:postcode":"RH2 0BD","name":"Reigate","naptan:AtcoCode":"9100REIGATE","network":"National Rail","postcode":"RH2 0BD","public_transport":"station","railway":"station","ref:crs":"REI","toilets:wheelchair":"yes","website":"http://www.nationalrail.co.uk/stations-and-destinations/stations-made-easy/reigate-station-plan","wheelchair":"yes","wheelchair:description":"Platform 1 for Gatwick: Step free via side gate to ticket office & WC, Platform 2 for Reading & London step free, Blue Badge Bays nearby. Hearing Loop in Booking Office. Uneven \"Step-free\" to town is across rail tracks. Subway has steps.","wikidata":"Q628747","wikipedia":"en:Reigate railway station"}},
{"type":"Feature","geometry":{"type":"Point","coordinates":[-0.2887523,51.5174885]},"properties":{"fare_zone":"3","line":"Piccadilly","name":"North Ealing","network":"London Underground","public_transport":"station","railway":"station","source":"NPE","station":"subway","subway":"yes","wheelchair":"no","wikidata":"Q1272075","wikipedia":"en:North Ealing tube station"}},
{"type":"Feature","geometry":{"type":"Point","coordinates":[-0.342528,51.7446585]},"properties":{"name":"St Albans Abbey","naptan:AtcoCode":"9100STALBNA","network":"National Rail","operator":"London Northwestern Railway","public_transport":"station","railway":"station","ref:crs":"SAA","ref:stanox":"71030","ref:tiploc":"STALBNA","wheelchair":"yes","wikidata":"Q2693952","wikipedia":"en:St Albans Abbey railway station"}},
{"type":"Feature","geometry":{"type":"Point","coordinates":[-0.3400687,51.7256643]},"properties":{"name":"Park Street","naptan:AtcoCode":"9100PKST","network":"National Rail","operator":"London Northwestern Railway","public_transport":"station","railway":"station","ref:crs":"PKT","ref:stanox":"71032","ref:tiploc":"PKST","wikidata":"Q2162503","wikipedia":"en:Park Street railway station (England)"}},
{"type":"Feature","geometry":{"type":"Point","coordinates":[-0.3591176,51.7055662]},"properties":{"internet_access":"no","name":"Bricket Wood","naptan:AtcoCode":"9100BCWD","network":"National Rail","operator":"London Northwestern Railway","public_transport":"station","railway":"station","ref:crs":"BWO","ref:stanox":"71036","ref:tiploc":"BCWD","train":"yes","wheelchair":"limited","wikidata":"Q2407794","wikipedia":"en:Bricket Wood railway station"}},
{"type":"Feature","geometry":{"type":"Point","coordinates":[-0.3818122,51.6865229]},"properties":{"name":"Garston","naptan:AtcoCode":"9100GRSTH","network":"National Rail","operator":"London Northwestern Railway","public_transport":"station","railway":"station","ref:crs":"GSN","ref:stanox":"71038","ref:tiploc":"GRSTH","wheelchair":"limited","wikidata":"Q19895","wikipedia":"en:Garston railway station (Hertfordshire)"}},
{"type":"Feature","geometry":{"type":"Point","coordinates":[-0.3902879,51.6750417]},"properties":{"name":"Watford North","naptan:AtcoCode":"9100WATFDN","network":"National Rail","operator":"London Northwestern Railway","public_transport":"station","railway":"station","ref:crs":"WFN","ref:stanox":"71039","ref:tiploc":"WATFDN","wheelchair":"yes","wikidata":"Q19902","wikipedia":"en:Watford North railway station"}},
{"type":"Feature","geometry":{"type":"Point","coordinates":[-0.3446753,51.7176358]},"properties":{"name":"How Wood","naptan:AtcoCode":"9100HOWWOOD","network":"National Rail","operator":"London Northwestern Railway","public_transport":"station","railway":"station","ref:crs":"HWW","ref:stanox":"71034","ref:tiploc":"HOWWOOD","wikidata":"Q2664311","wikipedia":"en:How Wood railway station"}},
{"type":"Feature","geometry":{"type":"Point","coordinates":[-0.1050481,51.439867]},"properties":{"name":"Tulse Hill","name:ru":"Талс-Хилл","network":"National Rail","railway":"station","ref:crs":"TUH","operator":"Southern","wikidata":"Q2851519","wikipedia":"en:Tulse Hill railway station","naptan:AtcoCode":"9100TULSEH","public_transport":"station"}},
{"type":"Feature","geometry":{"type":"Point","coordinates":[-1.6367716,55.392793]},"properties":{"name":"Alnmouth","source":"NPE","network":"National Rail","railway":"station","ref:crs":"ALM","wikidata":"Q4734063","wikipedia":"en:Alnmouth railway station","naptan:AtcoCode":"9100ALNMOTH"}},
{"type":"Feature","geometry":{"type":"Point","coordinates":[-2.0105423,55.7745555]},"properties":{"name":"Berwick-upon-Tweed","network":"National Rail","railway":"station","ref:crs":"BWK","operator":"London North Eastern Railway","wikidata":"Q2232337","wikipedia":"en:Berwick-upon-Tweed railway station"}},
{"type":"Feature","geometry":{"type":"Point","coordinates":[-1.7067301,55.5367939]},"properties":{"name":"Chathill","naptan:AtcoCode":"9100CHHL","network":"National Rail","operator":"Northern","public_transport":"station","railway":"station","ref:crs":"CHT","source":"NPE","wikidata":"Q5087731","wikipedia":"en:Chathill railway station"}},
{"type":"Feature","geometry":{"type":"Point","coordinates":[-1.1959184,52.7690651]},"properties":{"name":"Loughborough Central","train":"yes","usage":"tourism","railway":"station","tourism":"attraction","wikidata":"Q6686151","addr:city":"Loughborough","wikipedia":"en:Loughborough Central railway station","wheelchair":"limited","addr:postcode":"LE11 1RW","addr:housename":"Loughborough Central Station","public_transport":"station"}},
{"type":"Feature","geometry":{"type":"Point","coordinates":[-0.1407393,50.8288602]},"properties":{"name":"Brighton","train":"yes","network":"National Rail","railway":"station","ref:crs":"BTN","operator":"Southern","wikidata":"Q800573","addr:city":"Brighton","wikipedia":"en:Brighton railway station","wheelchair":"yes","addr:postcode":"BN1 3XP","naptan:AtcoCode":"9100BRGHTN","public_transport":"station","wheelchair:description":"Level access from buses and taxis. Tactile plan near entrance. Step-free between ends of all platforms. Train access requires ramps, no Harrington Humps discovered."}},
{"type":"Feature","geometry":{"type":"Point","coordinates":[0.3663527,52.2016386]},"properties":{"name":"Dullingham","network":"National Rail","railway":"station","ref:crs":"DUL","wikidata":"Q3353344","wikipedia":"en:Dullingham railway station","naptan:AtcoCode":"9100DULNGHM"}},
{"type":"Feature","geometry":{"type":"Point","coordinates":[-1.664932,54.9588888]},"properties":{"name":"MetroCentre","train":"yes","source":"Bing;local knowledge;gps","network":"National Rail","railway":"station","ref:crs":"MCE","alt_name":"Metro Centre","operator":"Northern","wikidata":"Q2781169","addr:city":"Gateshead","wikipedia":"en:MetroCentre railway station","wheelchair":"yes","addr:postcode":"NE11 9GA","naptan:AtcoCode":"9100GTSHDMC","public_transport":"station"}},
{"type":"Feature","geometry":{"type":"Point","coordinates":[-2.7722766,54.8094607]},"properties":{"name":"Armathwaite","naptan:AtcoCode":"9100ARMTHWT","network":"National Rail","public_transport":"station","railway":"station","ref:crs":"AWT","source":"OS_OpenData_StreetView","wikidata":"Q2444747","wikipedia":"en:Armathwaite railway station"}},
{"type":"Feature","geometry":{"type":"Point","coordinates":[-2.7036908,54.7508153]},"properties":{"name":"Lazonby and Kirkoswald","source":"NPE","network":"National Rail","railway":"station","ref:crs":"LZB","wikidata":"Q1973653","wikipedia":"en:Lazonby and Kirkoswald railway station","naptan:AtcoCode":"9100LAZKRKO","public_transport":"station"}},
{"type":"Feature","geometry":{"type":"Point","coordinates":[-2.6635574,54.6943632]},"properties":{"name":"Langwathby","source":"NPE","network":"National Rail","railway":"station","ref:crs":"LGW","wikidata":"Q2035773","wikipedia":"en:Langwathby railway station","naptan:AtcoCode":"9100LWBY","public_transport":"station"}},
{"type":"Feature","geometry":{"type":"Point","coordinates":[-2.3263682,54.3214617]},"properties":{"name":"Garsdale","source":"NPE","network":"National Rail","railway":"station","ref:crs":"GSD","wikidata":"Q2145153","wikipedia":"en:Garsdale railway station","naptan:AtcoCode":"9100GARSDLE","public_transport":"station"}},
{"type":"Feature","geometry":{"type":"Point","coordinates":[-2.3635911,54.2825669]},"properties":{"name":"Dent","train":"yes","source":"NPE","network":"National Rail","railway":"station","ref:crs":"DNT","wikidata":"Q2319302","wikipedia":"en:Dent railway station","naptan:AtcoCode":"9100DENT","public_transport":"station"}},
{"type":"Feature","geometry":{"type":"Point","coordinates":[-2.3020792,54.1492195]},"properties":{"name":"Horton-in-Ribblesdale","source":"NPE","network":"National Rail","railway":"station","ref:crs":"HIR","wikidata":"Q5906817","wikipedia":"en:Horton-in-Ribblesdale railway station","naptan:AtcoCode":"9100HTNRIBL","public_transport":"station"}},
{"type":"Feature","geometry":{"type":"Point","coordinates":[-0.1553443,50.8460091]},"properties":{"addr:postcode":"BN1 6SG","name":"Preston Park","naptan:AtcoCode":"9100PRSP","network":"National Rail","operator":"Southern","public_transport":"station","railway":"station","ref:crs":"PRP","wikidata":"Q2337400","wikipedia":"en:Preston Park railway station"}},
{"type":"Feature","geometry":{"type":"Point","coordinates":[-0.1875624,51.9929714]},"properties":{"name":"Baldock","network":"National Rail","railway":"station","ref:crs":"BDK","wikidata":"Q19953","wikipedia":"en:Baldock railway station","naptan:AtcoCode":"9100BALDOCK"}},
{"type":"Feature","geometry":{"type":"Point","coordinates":[-1.6729068,52.2952126]},"properties":{"addr:city":"Hatton","addr:postcode":"CV35 7LE","addr:street":"Station Road","name":"Hatton","naptan:AtcoCode":"9100HATTON","network":"National Rail","old_name":"Hatton Junction","public_transport":"station","railway":"station","ref:crs":"HTN","wikidata":"Q13528205","wikipedia":"en:Hatton railway station (England)"}},
{"type":"Feature","geometry":{"type":"Point","coordinates":[-1.7257883,52.3417839]},"properties":{"name":"Lapworth","naptan:AtcoCode":"9100LAPWRTH","network":"National Rail","public_transport":"station","railway":"station","ref:crs":"LPW","wikidata":"Q1904720","wikipedia":"en:Lapworth railway station"}},
{"type":"Feature","geometry":{"type":"Point","coordinates":[-1.7527829,52.3718817]},"properties":{"name":"Dorridge","source":"NPE","network":"National Rail","railway":"station","ref:crs":"DDG","wikidata":"Q2512506","wikipedia":"en:Dorridge railway station","naptan:AtcoCode":"9100DORIDGE","public_transport":"station","west_midlands_fare_zone":"5"}},
{"type":"Feature","geometry":{"type":"Point","coordinates":[-1.7743426,52.3962802]},"properties":{"name":"Widney Manor","network":"National Rail","railway":"station","ref:crs":"WMR","wikidata":"Q2079928","wikipedia":"en:Widney Manor railway station","naptan:AtcoCode":"9100WDNYMNR","west_midlands_fare_zone":"4"}},
{"type":"Feature","geometry":{"type":"Point","coordinates":[-1.7888672,52.4146286]},"properties":{"name":"Solihull","naptan:AtcoCode":"9100SOLIHUL","network":"National Rail","public_transport":"station","railway":"station","ref:crs":"SOL","west_midlands_fare_zone":"4","wikidata":"Q7558107","wikipedia":"en:Solihull railway station"}},
{"type":"Feature","geometry":{"type":"Point","coordinates":[-1.877661,52.4722127]},"properties":{"name":"Bordesley","naptan:AtcoCode":"9100BRDS","network":"National Rail","note":"only open on BCFC match days","public_transport":"station","railway":"station","ref:crs":"BBS","source":"NPE;survey","west_midlands_fare_zone":"2","wikidata":"Q3333114","wikipedia":"en:Bordesley railway station"}},
{"type":"Feature","geometry":{"type":"Point","coordinates":[-1.8994682,52.4836264]},"properties":{"name":"Birmingham Snow Hill","naptan:AtcoCode":"9100BHAMSNH","network":"National Rail","operator":"London Midland","public_transport":"station","railway":"station","ref:crs":"BSW","source":"knowledge","west_midlands_fare_zone":"1","wheelchair":"yes","wikidata":"Q3280363","wikipedia":"en:Birmingham Snow Hill railway station"}},
{"type":"Feature","geometry":{"type":"Point","coordinates":[-1.2497958,52.3788323]},"properties":{"name":"Rugby","source":"NPE","network":"National Rail","railway":"station","ref:crs":"RUG","wikidata":"Q3250380","wikipedia":"en:Rugby railway station","wheelchair":"yes","naptan:AtcoCode":"9100RUGBY","toilets:wheelchair":"yes"}},
{"type":"Feature","geometry":{"type":"Point","coordinates":[-0.3924982,51.6522296]},"properties":{"name":"Watford High Street","source":"NPE","network":"London Overground","railway":"station","ref:crs":"WFH","operator":"London Overground","wikidata":"Q19898","wikipedia":"en:Watford High Street railway station","ref:stanox":"72002","ref:tiploc":"WATFDHS","source_ref":"http://en.wikipedia.org/wiki/London_Overground#Stations","wheelchair":"no","source:network":"Sign","naptan:AtcoCode":"9100WATFDHS","public_transport":"station"}},
{"type":"Feature","geometry":{"type":"Point","coordinates":[-0.7180384,51.9999897]},"properties":{"name":"Fenny Stratford","source":"NPE","network":"National Rail","railway":"station","ref:crs":"FEN","wikidata":"Q2277649","wikipedia":"en:Fenny Stratford railway station","postal_code":"MK2 2XP","naptan:AtcoCode":"9100FSTR"}},
{"type":"Feature","geometry":{"type":"Point","coordinates":[-2.2367035,53.3693993]},"properties":{"name":"Heald Green","network":"National Rail","railway":"station","ref:crs":"HDG","wikipedia":"en:Heald Green railway station","naptan:AtcoCode":"9100HLDG","public_transport":"station"}},
{"type":"Feature","geometry":{"type":"Point","coordinates":[-2.8190719,54.3756184]},"properties":{"name":"Staveley","network":"National Rail","railway":"station","ref:crs":"SVL","alt_name":"Staveley (Cumbria)","operator":"Northern","wikidata":"Q2032914","addr:city":"Staveley","wikipedia":"en:Staveley railway station","wheelchair":"no","addr:street":"Station Road","addr:postcode":"LA8 9NG","naptan:AtcoCode":"9100STAVELY","public_transport":"station"}},
{"type":"Feature","geometry":{"type":"Point","coordinates":[-0.8292113,51.7359634]},"properties":{"name":"Monks Risborough","note":"This is a halt IIRC- Little more than a platform with a ticket machine","source":"NPE","network":"National Rail","railway":"station","ref:crs":"MRS","operator":"Chiltern Railways","wikidata":"Q925646","platforms":"1","wikipedia":"en:Monks Risborough railway station","naptan:AtcoCode":"9100MNKRISB"}},
{"type":"Feature","geometry":{"type":"Point","coordinates":[-0.9421714,51.771088]},"properties":{"name":"Haddenham and Thame Parkway","network":"National Rail","railway":"station","ref:crs":"HDM","wikidata":"Q2848978","wikipedia":"en:Haddenham & Thame Parkway railway station","naptan:AtcoCode":"9100HADMATP"}},
{"type":"Feature","geometry":{"type":"Point","coordinates":[-0.8254447,51.6759885]},"properties":{"name":"Saunderton","train":"yes","network":"National Rail","railway":"station","ref:crs":"SDR","wikidata":"Q2740928","wikipedia":"en:Saunderton railway station","naptan:AtcoCode":"9100SUNDRTN","public_transport":"station"}},
{"type":"Feature","geometry":{"type":"Point","coordinates":[-0.5552056,51.5889326]},"properties":{"name":"Gerrards Cross","source":"NPE","network":"National Rail","railway":"station","ref:crs":"GER","operator":"Chiltern Railways","wikidata":"Q2412080","wikipedia":"en:Gerrards Cross railway station","naptan:AtcoCode":"9100GERRDSX","public_transport":"station"}},
{"type":"Feature","geometry":{"type":"Point","coordinates":[-0.5176671,51.5805841]},"properties":{"name":"Denham Golf Club","network":"National Rail","railway":"station","ref:crs":"DGC","operator":"Chiltern Railways","wikidata":"Q2521362","wikipedia":"en:Denham Golf Club railway station","naptan:AtcoCode":"9100DENHMGC","public_transport":"station"}},
{"type":"Feature","geometry":{"type":"Point","coordinates":[-0.4973598,51.5787302]},"properties":{"name":"Denham","source":"NPE","network":"National Rail","railway":"station","ref:crs":"DNM","operator":"Chiltern Railways","wikipedia":"en:Denham railway station","naptan:AtcoCode":"9100DENHAM","public_transport":"station"}},
{"type":"Feature","geometry":{"type":"Point","coordinates":[-0.4104564,51.5606341]},"properties":{"fare_zone":"5","line":"Central","name":"Ruislip Gardens","network":"London Underground","operator":"London Underground","public_transport":"station","railway":"station","source":"NPE","source_ref":"http://en.wikipedia.org/wiki/List_of_London_Underground_stations","station":"subway","subway":"yes","wheelchair":"no","wikidata":"Q1718915","wikipedia":"en:Ruislip Gardens tube station"}},
{"type":"Feature","geometry":{"type":"Point","coordinates":[-2.0658008,52.5305385]},"properties":{"name":"Tipton","source":"NPE","network":"National Rail","railway":"station","ref:crs":"TIP","wikidata":"Q2660685","wikipedia":"en:Tipton railway station","naptan:AtcoCode":"9100TIPTON","west_midlands_fare_zone":"5"}},
{"type":"Feature","geometry":{"type":"Point","coordinates":[-0.7476905,51.7618168]},"properties":{"name":"Wendover","source":"NPE","network":"National Rail","railway":"station","ref:crs":"WND","wikidata":"Q2751439","wikipedia":"en:Wendover railway station","naptan:AtcoCode":"9100WENDOVR"}},
{"type":"Feature","geometry":{"type":"Point","coordinates":[-0.7092361,51.7035032]},"properties":{"name":"Great Missenden","source":"NPE","network":"National Rail","railway":"station","ref:crs":"GMN","wikidata":"Q1843842","wikipedia":"en:Great Missenden railway station","wheelchair":"yes","naptan:AtcoCode":"9100GTMSNDN","public_transport":"station","toilets:wheelchair":"yes"}},
{"type":"Feature","geometry":{"type":"Point","coordinates":[-1.9701934,52.4964344]},"properties":{"name":"Smethwick Rolfe Street","network":"National Rail","railway":"station","ref:crs":"SMR","wikidata":"Q2274385","wikipedia":"en:Smethwick Rolfe Street railway station","naptan:AtcoCode":"9100SMTHKRS","west_midlands_fare_zone":"2"}},
{"type":"Feature","geometry":{"type":"Point","coordinates":[-0.3085949,51.5703765]},"properties":{"fare_zone":"4","line":"Bakerloo","name":"South Kenton","naptan:AtcoCode":"9100SKENTON","network":"London Underground;London Overground","network:subway":"London Overground","network:train":"London Overground","operator":"Transport for London","public_transport":"station","railway":"station","ref:crs":"SOK","ref:stanox":"72009","ref:tiploc":"SKENTON","source":"NPE","source:network":"Sign","source_ref":"http://en.wikipedia.org/wiki/List_of_London_Underground_stations;http://en.wikipedia.org/wiki/London_Overground#Stations","station":"subway","subway":"yes","wheelchair":"no","wikidata":"Q801454","wikipedia":"en:South Kenton station"}},
{"type":"Feature","geometry":{"type":"Point","coordinates":[-0.3038698,51.5624017]},"properties":{"fare_zone":"4","line":"Bakerloo","name":"North Wembley","naptan:AtcoCode":"9100NWEMBLY","network":"London Underground;London Overground","network:subway":"London Overground","network:train":"London Overground","operator":"Transport for London","public_transport":"station","railway":"station","ref:crs":"NWB","ref:stanox":"72010","ref:tiploc":"NWEMBLY","source":"NPE","source:network":"Sign","source_ref":"http://en.wikipedia.org/wiki/List_of_London_Underground_stations;http://en.wikipedia.org/wiki/London_Overground#Stations","station":"subway","subway":"yes","wheelchair":"no","wikidata":"Q730267","wikipedia":"en:North Wembley station"}},
{"type":"Feature","geometry":{"type":"Point","coordinates":[-1.8254904,52.6798923]},"properties":{"name":"Lichfield City","source":"NPE","network":"National Rail","railway":"station","ref:crs":"LIC","wikidata":"Q1924638","wikipedia":"en:Lichfield City railway station","naptan:AtcoCode":"9100LCHC"}},
{"type":"Feature","geometry":{"type":"Point","coordinates":[-1.9371251,52.7545973]},"properties":{"name":"Rugeley Town","source":"NPE","network":"National Rail","railway":"station","ref:crs":"RGT","wikidata":"Q2649169","wikipedia":"en:Rugeley Town railway station","naptan:AtcoCode":"9100RUGLTWN","west_midlands_fare_zone":"5"}},
{"type":"Feature","geometry":{"type":"Point","coordinates":[-2.2988432,53.0930252]},"properties":{"addr:postcode":"ST7 2XW","addr:street":"Sandbach Road","name":"Alsager","naptan:AtcoCode":"9100ALSAGER","network":"National Rail","railway":"station","ref:crs":"ASG","source":"NPE","wikipedia":"en:Alsager railway station"}},
{"type":"Feature","geometry":{"type":"Point","coordinates":[-1.9924997,52.3609702]},"properties":{"name":"Barnt Green","naptan:AtcoCode":"9100BGRN","network":"National Rail","public_transport":"station","railway":"station","ref:crs":"BTG","source":"NPE","wikidata":"Q2658226","wikipedia":"en:Barnt Green railway station"}},
{"type":"Feature","geometry":{"type":"Point","coordinates":[-2.1583391,52.2683805]},"properties":{"name":"Droitwich Spa","train":"yes","network":"National Rail","railway":"station","ref:crs":"DTW","operator":"London Midland","wikidata":"Q2360854","platforms":"2","wikipedia":"en:Droitwich Spa railway station","naptan:AtcoCode":"9100DRTWCHS","public_transport":"station"}},
{"type":"Feature","geometry":{"type":"Point","coordinates":[-2.1193938,52.7236965]},"properties":{"name":"Penkridge","source":"NPE","network":"National Rail","railway":"station","ref:crs":"PKG","wikidata":"Q2547278","wikipedia":"en:Penkridge railway station","naptan:AtcoCode":"9100PNKRDG"}},
{"type":"Feature","geometry":{"type":"Point","coordinates":[-1.9909844,52.5630075]},"properties":{"name":"Bescot Stadium","source":"NPE","network":"National Rail","railway":"station","ref:crs":"BSC","wikidata":"Q4896204","wikipedia":"en:Bescot Stadium railway station","naptan:AtcoCode":"9100BSCTSTA","west_midlands_fare_zone":"4"}},
{"type":"Feature","geometry":{"type":"Point","coordinates":[-1.9759632,52.5522427]},"properties":{"name":"Tame Bridge Parkway","network":"National Rail","railway":"station","ref:crs":"TAB","wikidata":"Q1881868","wikipedia":"en:Tame Bridge Parkway railway station","naptan:AtcoCode":"9100TAMEBDG","west_midlands_fare_zone":"4"}},
{"type":"Feature","geometry":{"type":"Point","coordinates":[-1.9020795,52.5163777]},"properties":{"name":"Perry Barr","train":"yes","network":"National Rail","railway":"station","ref:crs":"PRY","wikidata":"Q2113907","wikipedia":"en:Perry Barr railway station","naptan:AtcoCode":"9100PRYBR","public_transport":"station","wikimedia_commons":"Category:Perry Barr railway station","west_midlands_fare_zone":"2"}},
{"type":"Feature","geometry":{"type":"Point","coordinates":[-0.266464,52.0258212]},"properties":{"name":"Arlesey","naptan:AtcoCode":"9100ARLSEY","network":"National Rail","public_transport":"station","railway":"station","ref:crs":"ARL","ref:tiploc":"ARLSEY","source:name":"local knowledge","wikidata":"Q4567224","wikipedia":"en:Arlesey railway station"}},
{"type":"Feature","geometry":{"type":"Point","coordinates":[0.6100875,50.9186526]},"properties":{"name":"Doleham","source":"NPE","network":"National Rail","railway":"station","ref:crs":"DLH","wikidata":"Q2174016","wikipedia":"en:Doleham railway station","naptan:AtcoCode":"9100DOLEHAM"}},
{"type":"Feature","geometry":{"type":"Point","coordinates":[0.576804,50.8582685]},"properties":{"name":"Hastings","network":"National Rail","railway":"station","ref:crs":"HGS","wikidata":"Q2556633","addr:city":"Hastings","wikipedia":"en:Hastings railway station","naptan:AtcoCode":"9100HASTING","public_transport":"station","wikimedia_commons":"Category:Hastings railway station"}},
{"type":"Feature","geometry":{"type":"Point","coordinates":[-2.9423032,51.3485072]},"properties":{"name":"Weston Milton","source":"NPE + GPX","network":"National Rail","railway":"station","ref:crs":"WNM","operator":"GWR","wikidata":"Q2432877","wikipedia":"en:Weston Milton railway station","naptan:AtcoCode":"9100WMILTON","public_transport":"station"}},
{"type":"Feature","geometry":{"type":"Point","coordinates":[-2.8277214,51.3908839]},"properties":{"name":"Yatton","source":"NPE + GPX","network":"National Rail","railway":"station","ref:crs":"YAT","operator":"GWR","wikidata":"Q1957149","platforms":"2","wikipedia":"en:Yatton railway station","naptan:AtcoCode":"9100YATTON","public_transport":"station"}},
{"type":"Feature","geometry":{"type":"Point","coordinates":[-2.9718305,51.344496]},"properties":{"name":"Weston-super-Mare","source":"NPE","network":"National Rail","railway":"station","ref:crs":"WSM","wikidata":"Q2335883","wikipedia":"en:Weston-super-Mare railway station","naptan:AtcoCode":"9100WSMARE"}},
{"type":"Feature","geometry":{"type":"Point","coordinates":[-3.5009604,50.7310108]},"properties":{"name":"Polsloe Bridge","train":"yes","network":"National Rail","railway":"station","ref:crs":"POL","wikidata":"Q2782711","wikipedia":"en:Polsloe Bridge railway station","wheelchair":"no","naptan:AtcoCode":"9100POLSBDG","public_transport":"station"}},
{"type":"Feature","geometry":{"type":"Point","coordinates":[-3.4637875,50.685645]},"properties":{"name":"Topsham","source":"NPE + GPX","name:be":"Топшам","name:en":"Topsham","name:ru":"Топшем","network":"National Rail","railway":"station","ref:crs":"TOP","operator":"First Great Western","wikidata":"Q1990205","wikipedia":"en:Topsham railway station","wheelchair":"yes","naptan:AtcoCode":"9100TOPSHAM"}},
{"type":"Feature","geometry":{"type":"Point","coordinates":[-3.4441901,50.6681286]},"properties":{"name":"Exton","network":"National Rail","railway":"station","ref:crs":"EXN","wikidata":"Q4553827","wikipedia":"en:Exton railway station","request_stop":"yes","naptan:AtcoCode":"9100EXTON"}},
{"type":"Feature","geometry":{"type":"Point","coordinates":[-3.4410809,50.662630299999999]},"properties":{"name":"Lympstone Commando","train":"yes","network":"National Rail","railway":"station","ref:crs":"LYC","wikidata":"Q1977209","wikipedia":"en:Lympstone Commando railway station","request_stop":"yes","naptan:AtcoCode":"9100LYMPSTC","public_transport":"station"}},
{"type":"Feature","geometry":{"type":"Point","coordinates":[-3.4148453,50.6216592]},"properties":{"name":"Exmouth","train":"yes","name:en":"Exmouth","name:lt":"Eksmutas","network":"National Rail","railway":"station","ref:crs":"EXM","wikidata":"Q2681544","wikipedia":"en:Exmouth railway station","naptan:AtcoCode":"9100EXMOUTH","public_transport":"station"}},
{"type":"Feature","geometry":{"type":"Point","coordinates":[-2.3195676,52.1258094]},"properties":{"name":"Malvern Link","source":"NPE","network":"National Rail","railway":"station","ref:crs":"MVL","wikidata":"Q2657768","wikipedia":"en:Malvern Link railway station","addr:postcode":"WR14 1SW","naptan:AtcoCode":"9100MLVRNLK"}},
{"type":"Feature","geometry":{"type":"Point","coordinates":[-1.3277225,51.0221625]},"properties":{"name":"Shawford","network":"National Rail","railway":"station","ref:crs":"SHW","wikidata":"Q3295440","wikipedia":"en:Shawford railway station","naptan:AtcoCode":"9100SHAWFD"}},
{"type":"Feature","geometry":{"type":"Point","coordinates":[-2.1767711,52.4064788]},"properties":{"name":"Blakedown","train":"yes","source":"NPE","network":"National Rail","railway":"station","ref:crs":"BKD","operator":"London Midland","wikidata":"Q2171050","wikipedia":"en:Blakedown railway station","naptan:AtcoCode":"9100BLAKEDN","public_transport":"station"}},
{"type":"Feature","geometry":{"type":"Point","coordinates":[-2.1465358,52.4224267]},"properties":{"name":"Hagley","source":"NPE","network":"National Rail","railway":"station","ref:crs":"HAG","wikidata":"Q2763246","wikipedia":"en:Hagley railway station","naptan:AtcoCode":"9100HAGLEY"}},
{"type":"Feature","geometry":{"type":"Point","coordinates":[-2.1340314,52.4476157]},"properties":{"name":"Stourbridge Junction","naptan:AtcoCode":"9100STRBDGJ","network":"National Rail","public_transport":"station","railway":"station","ref:crs":"SBJ","source":"NPE","west_midlands_fare_zone":"5","wikidata":"Q2045806","wikipedia":"en:Stourbridge Junction railway station"}},
{"type":"Feature","geometry":{"type":"Point","coordinates":[-2.1419647,52.4556424]},"properties":{"name":"Stourbridge Town","source":"NPE","network":"National Rail","railway":"station","ref:crs":"SBT","wikidata":"Q2746016","wikipedia":"en:Stourbridge Town railway station","naptan:AtcoCode":"9100STRBDGT","west_midlands_fare_zone":"5"}},
{"type":"Feature","geometry":{"type":"Point","coordinates":[-2.1160497,52.4599417]},"properties":{"name":"Lye","source":"NPE","network":"National Rail","railway":"station","ref:crs":"LYE","wikidata":"Q2044178","wikipedia":"en:Lye railway station","naptan:AtcoCode":"9100LYEE","west_midlands_fare_zone":"5"}},
{"type":"Feature","geometry":{"type":"Point","coordinates":[-2.0906252,52.4694408]},"properties":{"name":"Cradley Heath","source":"NPE","network":"National Rail","railway":"station","ref:crs":"CRA","wikidata":"Q1924927","wikipedia":"en:Cradley Heath railway station","naptan:AtcoCode":"9100CRADLYH","west_midlands_fare_zone":"5"}},
{"type":"Feature","geometry":{"type":"Point","coordinates":[-2.0308221,52.4774198]},"properties":{"name":"Rowley Regis","naptan:AtcoCode":"9100ROWLEYR","network":"National Rail","operator":"London Midland","railway":"station","ref:crs":"ROW","source":"NPE","west_midlands_fare_zone":"3","wikidata":"Q2497234","wikipedia":"en:Rowley Regis railway station"}},
{"type":"Feature","geometry":{"type":"Point","coordinates":[-2.0054314,52.4934857]},"properties":{"name":"Langley Green","source":"NPE","network":"National Rail","railway":"station","ref:crs":"LGG","wikidata":"Q2390772","wikipedia":"en:Langley Green railway station","naptan:AtcoCode":"9100LGRN","west_midlands_fare_zone":"3"}},
{"type":"Feature","geometry":{"type":"Point","coordinates":[0.0091415,52.0908316]},"properties":{"name":"Meldreth","network":"National Rail","railway":"station","ref:crs":"MEL","wikidata":"Q2915277","wikipedia":"en:Meldreth railway station","naptan:AtcoCode":"9100MELDRTH","public_transport":"station"}},
{"type":"Feature","geometry":{"type":"Point","coordinates":[-2.3060829,52.3756008]},"properties":{"name":"Bewdley","platforms":"1","railway":"station","source":"NPE","usage":"tourism","wikidata":"Q4899741"}},
{"type":"Feature","geometry":{"type":"Point","coordinates":[-2.3274107,52.3945523]},"properties":{"name":"Northwood Halt","usage":"tourism","source":"NPE","railway":"station","operator":"Severn Valley Railway","wikidata":"Q7060470","request_stop":"yes"}},
{"type":"Feature","geometry":{"type":"Point","coordinates":[-2.3488657,52.4171608]},"properties":{"name":"Arley","usage":"tourism","source":"NPE","railway":"station"}},
{"type":"Feature","geometry":{"type":"Point","coordinates":[-2.3771788,52.4738899]},"properties":{"name":"Hampton Loade","usage":"tourism","source":"NPE","railway":"station","operator":"Severn Valley Railway"}},
{"type":"Feature","geometry":{"type":"Point","coordinates":[-2.3705819,52.444908]},"properties":{"name":"Highley","note":"Name from nearby village","usage":"tourism","source":"NPE","railway":"station","operator":"Severn Valley Railway","wikidata":"Q5759466","public_transport":"station"}},
{"type":"Feature","geometry":{"type":"Point","coordinates":[-0.4585987,51.9054737]},"properties":{"name":"Leagrave","network":"National Rail","railway":"station","ref:crs":"LEA","wikidata":"Q12061118","wikipedia":"en:Leagrave railway station","naptan:AtcoCode":"9100LEAGRVE","public_transport":"station"}},
{"type":"Feature","geometry":{"type":"Point","coordinates":[-1.2659524,50.8757192]},"properties":{"addr:city":"Southampton","addr:country":"GB","addr:postcode":"SO31 1BA","name":"Swanwick","naptan:AtcoCode":"9100SWNWICK","network":"National Rail","public_transport":"station","railway":"station","ref:crs":"SNW","wikidata":"Q2765966","wikipedia":"en:Swanwick railway station"}},
{"type":"Feature","geometry":{"type":"Point","coordinates":[-2.0231454,51.6769153]},"properties":{"name":"Kemble","source":"survey","network":"National Rail","railway":"station","ref:crs":"KEM","wikidata":"Q1877761","wikipedia":"en:Kemble railway station","naptan:AtcoCode":"9100KEMBLE"}},
{"type":"Feature","geometry":{"type":"Point","coordinates":[-0.3361942,51.558533]},"properties":{"name":"Sudbury Hill Harrow","network":"National Rail","railway":"station","ref:crs":"SDH","operator":"Chiltern Railways","wikidata":"Q941324","wikipedia":"en:Sudbury Hill Harrow railway station","wheelchair":"no","naptan:AtcoCode":"9100SDBRYHH","public_transport":"station"}},
{"type":"Feature","geometry":{"type":"Point","coordinates":[-2.2193861,51.744576]},"properties":{"name":"Stroud","source":"NPE","network":"National Rail","railway":"station","ref:crs":"STD","wikidata":"Q3079073","wikipedia":"en:Stroud railway station","postal_code":"GL5 3AP","naptan:AtcoCode":"9100STRUD"}},
{"type":"Feature","geometry":{"type":"Point","coordinates":[-2.2795292,51.7459688]},"properties":{"name":"Stonehouse","source":"NPE","network":"National Rail","railway":"station","ref:crs":"SHU","wikidata":"Q1992485","wikipedia":"en:Stonehouse railway station","postal_code":"GL10 2JW","naptan:AtcoCode":"9100STNHSE"}},
{"type":"Feature","geometry":{"type":"Point","coordinates":[-1.4824602,50.9178407]},"properties":{"name":"Totton","network":"National Rail","railway":"station","ref:crs":"TTN","alt_name":"Totton Rail Station","wikidata":"Q2008136","wikipedia":"en:Totton railway station","postal_code":"SO40 3AB","naptan:AtcoCode":"9100TOTTON"}},
{"type":"Feature","geometry":{"type":"Point","coordinates":[-1.2272134,53.8270101]},"properties":{"name":"Church Fenton","source":"npe","network":"National Rail","railway":"station","ref:crs":"CHF","wikidata":"Q3489838","wikipedia":"en:Church Fenton railway station","naptan:AtcoCode":"9100CHFN"}},
{"type":"Feature","geometry":{"type":"Point","coordinates":[-0.1596548,51.4356086]},"properties":{"fare_zone":"3","line":"Northern","name":"Tooting Bec","name:ru":"Тутинг-Бек","network":"London Underground","public_transport":"station","railway":"station","station":"subway","subway":"yes","wikidata":"Q1424421","wikipedia":"en:Tooting Bec tube station"}},
{"type":"Feature","geometry":{"type":"Point","coordinates":[-1.5779212,53.8121567]},"properties":{"name":"Burley Park","network":"National Rail","railway":"station","ref:crs":"BUY","wikidata":"Q3298380","platforms":"2","wikipedia":"en:Burley Park railway station","naptan:AtcoCode":"9100BRLEYPK","public_transport":"station"}},
{"type":"Feature","geometry":{"type":"Point","coordinates":[-1.0195165,54.5873806]},"properties":{"name":"Marske","network":"National Rail","railway":"station","ref:crs":"MSK","uic_ref":"7001509","wikidata":"Q951534","wikipedia":"en:Marske railway station","ref:stanox":"15668","ref:tiploc":"MRSK","naptan:AtcoCode":"9100MRSK"}},
{"type":"Feature","geometry":{"type":"Point","coordinates":[-0.1299205,51.4651241]},"properties":{"fare_zone":"2","line":"Northern","name":"Clapham North","name:ru":"Клэпхем-Норт","network":"London Underground","operator":"London Underground","public_transport":"station","railway":"station","station":"subway","subway":"yes","wikidata":"Q1095082","wikipedia":"en:Clapham North tube station"}},
{"type":"Feature","geometry":{"type":"Point","coordinates":[-0.1123953,51.4818339]},"properties":{"fare_zone":"2","line":"Northern","name":"Oval","name:ru":"Овал","network":"London Underground","public_transport":"station","railway":"station","station":"subway","subway":"yes","wikidata":"Q426804","wikimedia_commons":"Category:Oval tube station","wikipedia":"en:Oval tube station"}},
{"type":"Feature","geometry":{"type":"Point","coordinates":[-0.1058829,51.4882861]},"properties":{"fare_zone":"2","line":"Northern","name":"Kennington","name:ru":"Кеннингтон","network":"London Underground","public_transport":"station","railway":"station","source_ref":"http://en.wikipedia.org/wiki/List_of_London_Underground_stations#cite_note-usage-6","station":"subway","subway":"yes","wheelchair":"yes","wikidata":"Q1738951","wikipedia":"en:Kennington tube station"}},
{"type":"Feature","geometry":{"type":"Point","coordinates":[-2.2220345,53.4092962]},"properties":{"name":"East Didsbury","network":"National Rail","railway":"station","ref:crs":"EDY","wikipedia":"en:East Didsbury railway station","naptan:AtcoCode":"9100EDIDBRY"}},
{"type":"Feature","geometry":{"type":"Point","coordinates":[-0.074968,51.5452841]},"properties":{"name":"Dalston Junction","train":"yes","name:fr":"Gare de Dalston Junction","network":"London Overground","railway":"station","ref:crs":"DLJ","operator":"London Overground","wikidata":"Q800651","platforms":"4","wikipedia":"en:Dalston Junction railway station","source_ref":"http://en.wikipedia.org/wiki/List_of_London_railway_stations;http://en.wikipedia.org/wiki/London_Overground#Stations","wheelchair":"yes","addr:street":"Dalston Lane","electrified":"rail","naptan:AtcoCode":"9100DALS","public_transport":"station","wheelchair:description":"Wide gates, lift down to all plaforms, Radar key operated wheelchair accessible toilet near lift at ticket hall level. Step-free from platform to train."}},
{"type":"Feature","geometry":{"type":"Point","coordinates":[-2.2089687,53.4336646]},"properties":{"name":"Mauldeth Road","network":"National Rail","railway":"station","ref:crs":"MAU","wikipedia":"en:Mauldeth Road railway station","naptan:AtcoCode":"9100MLDTHRD","public_transport":"station"}},
{"type":"Feature","geometry":{"type":"Point","coordinates":[-1.3711055,52.5351729]},"properties":{"name":"Hinckley","train":"yes","source":"GPS waypoint","network":"National Rail","railway":"station","ref:crs":"HNK","wikidata":"Q2733409","wikipedia":"en:Hinckley railway station","upload_tag":"ojw_bham","wheelchair":"yes","postal_code":"LE10 1UE","naptan:AtcoCode":"9100HINCKLY","public_transport":"station"}},
{"type":"Feature","geometry":{"type":"Point","coordinates":[-1.2402569,51.6856231]},"properties":{"name":"Radley","network":"National Rail","railway":"station","ref:crs":"RAD","wikidata":"Q4386081","wikipedia":"en:Radley railway station","naptan:AtcoCode":"9100RDLEY"}},
{"type":"Feature","geometry":{"type":"Point","coordinates":[-1.8007743,53.6348054]},"properties":{"name":"Lockwood","source":"npe","network":"National Rail","railway":"station","ref:crs":"LCK","wikipedia":"en:Lockwood railway station","naptan:AtcoCode":"9100LKWD"}},
{"type":"Feature","geometry":{"type":"Point","coordinates":[-1.7935857,53.6210459]},"properties":{"name":"Berry Brow","source":"npe","network":"National Rail","railway":"station","ref:crs":"BBW","operator":"Northern","wikipedia":"en:Berry Brow railway station","naptan:AtcoCode":"9100BERRYB"}},
{"type":"Feature","geometry":{"type":"Point","coordinates":[-1.780828,53.6082445]},"properties":{"name":"Honley","source":"npe","network":"National Rail","railway":"station","ref:crs":"HOY","wikipedia":"en:Honley railway station","naptan:AtcoCode":"9100HONLEY"}},
{"type":"Feature","geometry":{"type":"Point","coordinates":[-1.769846,53.5970891]},"properties":{"name":"Brockholes","source":"npe","network":"National Rail","railway":"station","ref:crs":"BHS","wikipedia":"en:Brockholes railway station","naptan:AtcoCode":"9100BKHLS"}},
{"type":"Feature","geometry":{"type":"Point","coordinates":[-1.663204,53.5728721]},"properties":{"name":"Denby Dale","network":"National Rail","railway":"station","ref:crs":"DBD","wikipedia":"en:Denby Dale railway station","naptan:AtcoCode":"9100DNDL","public_transport":"station"}},
{"type":"Feature","geometry":{"type":"Point","coordinates":[-1.6223405,53.5253187]},"properties":{"name":"Penistone","network":"National Rail","railway":"station","ref:crs":"PNS","wikidata":"Q2001260","wikipedia":"en:Penistone railway station","naptan:AtcoCode":"9100PENISTN","public_transport":"station"}},
{"type":"Feature","geometry":{"type":"Point","coordinates":[-1.5630808,53.5353289]},"properties":{"name":"Silkstone Common","network":"National Rail","railway":"station","ref:crs":"SLK","wikidata":"Q1882359","wikipedia":"en:Silkstone Common railway station","naptan:AtcoCode":"9100SKSCMN"}},
{"type":"Feature","geometry":{"type":"Point","coordinates":[-0.8179843,53.5898466]},"properties":{"name":"Crowle","source":"NPE","network":"National Rail","railway":"station","ref:crs":"CWE","operator":"Northern Rail","wikidata":"Q961797","wikipedia":"en:Crowle railway station","naptan:AtcoCode":"9100CROWLE","public_transport":"station"}},
{"type":"Feature","geometry":{"type":"Point","coordinates":[-0.732955,53.5855457]},"properties":{"name":"Althorpe","source":"NPE","network":"National Rail","railway":"station","ref:crs":"ALP","operator":"Northern Rail","wikidata":"Q4736675","wikipedia":"en:Althorpe railway station","naptan:AtcoCode":"9100ALTPE","public_transport":"station"}},
{"type":"Feature","geometry":{"type":"Point","coordinates":[-0.4097613,53.5750127]},"properties":{"name":"Barnetby","source":"npe","network":"National Rail","railway":"station","ref:crs":"BTB","operator":"First TransPennine Express","wikidata":"Q1861647","wikipedia":"en:Barnetby railway station","naptan:AtcoCode":"9100BNTBY","public_transport":"station"}},
{"type":"Feature","geometry":{"type":"Point","coordinates":[-0.4857584,53.5490517]},"properties":{"name":"Brigg","naptan:AtcoCode":"9100BRGG","network":"National Rail","operator":"Northern Rail","public_transport":"station","railway":"station","ref:crs":"BGG","source":"Bing","wikidata":"Q2549335","wikipedia":"en:Brigg railway station"}},
{"type":"Feature","geometry":{"type":"Point","coordinates":[-0.5935507,53.4852618]},"properties":{"name":"Kirton Lindsey","source":"NPE","network":"National Rail","railway":"station","ref:crs":"KTL","operator":"Northern Rail","wikidata":"Q3060156","wikipedia":"en:Kirton Lindsey railway station","naptan:AtcoCode":"9100KRTNLND","public_transport":"station"}},
{"type":"Feature","geometry":{"type":"Point","coordinates":[-1.9488416,53.8313183]},"properties":{"name":"Haworth","public_transport":"station","railway":"station","usage":"tourism","wikidata":"Q5685412","wikipedia":"en:Haworth railway station"}},
{"type":"Feature","geometry":{"type":"Point","coordinates":[-1.9419575,53.8413266]},"properties":{"name":"Oakworth","public_transport":"station","railway":"station","source":"OS 1:25k","usage":"tourism","wikidata":"Q7074337","wikipedia":"en:Oakworth railway station"}},
{"type":"Feature","geometry":{"type":"Point","coordinates":[-1.924448,53.8459194]},"properties":{"name":"Damems","railway":"station","usage":"tourism","wikidata":"Q5212155","wikipedia":"en:Damems railway station"}},
{"type":"Feature","geometry":{"type":"Point","coordinates":[-1.9151443,53.8536646]},"properties":{"name":"Ingrow (West)","public_transport":"station","railway":"station","usage":"tourism","wikidata":"Q6033350","wikipedia":"en:Ingrow (West) railway station"}},
{"type":"Feature","geometry":{"type":"Point","coordinates":[-1.7536925,53.8501789]},"properties":{"name":"Baildon","source":"NPE","network":"National Rail","railway":"station","ref:crs":"BLD","wikidata":"Q4475770","wikipedia":"en:Baildon railway station","naptan:AtcoCode":"9100BAILDON"}},
{"type":"Feature","geometry":{"type":"Point","coordinates":[-2.5886798,51.4683479]},"properties":{"name":"Montpelier","network":"National Rail","railway":"station","ref:crs":"MTP","operator":"Great Western Railway","wikidata":"Q962430","addr:city":"Bristol","wikipedia":"en:Montpelier railway station","addr:street":"Station Road","naptan:AtcoCode":"9100MONPELR"}},
{"type":"Feature","geometry":{"type":"Point","coordinates":[-2.2551519,54.0166575]},"properties":{"name":"Long Preston","network":"National Rail","old_ref":"NPE + GPX","railway":"station","ref:crs":"LPR","wikipedia":"en:Long Preston railway station","naptan:AtcoCode":"9100LPRESTN","public_transport":"station"}},
{"type":"Feature","geometry":{"type":"Point","coordinates":[-2.4488109,53.8048106]},"properties":{"name":"Langho","train":"yes","source":"NPE","network":"National Rail","railway":"station","ref:crs":"LHO","wikipedia":"en:Langho railway station","naptan:AtcoCode":"9100LGHO","public_transport":"station"}},
{"type":"Feature","geometry":{"type":"Point","coordinates":[-2.464258,53.6978726]},"properties":{"name":"Darwen","name:lt":"Darvenas","naptan:AtcoCode":"9100DARWEN","network":"National Rail","public_transport":"station","railway":"station","ref:crs":"DWN","source":"NPE","wikidata":"Q2248104","wikipedia":"en:Darwen railway station"}},
{"type":"Feature","geometry":{"type":"Point","coordinates":[-2.4139637,53.6556886]},"properties":{"name":"Entwistle","source":"npe","network":"National Rail","railway":"station","ref:crs":"ENT","wikidata":"Q2933251","wikipedia":"en:Entwistle railway station","request_stop":"yes","naptan:AtcoCode":"9100ENTWISL"}},
{"type":"Feature","geometry":{"type":"Point","coordinates":[-2.375213,53.544369]},"properties":{"name":"Kearsley","source":"npe","network":"National Rail","railway":"station","ref:crs":"KSL","wikipedia":"en:Kearsley railway station","ref:tiploc":"KEARSLY","naptan:AtcoCode":"9100KEARSLY"}},
{"type":"Feature","geometry":{"type":"Point","coordinates":[-2.3140752,53.5223306]},"properties":{"name":"Clifton","train":"yes","network":"National Rail","railway":"station","ref:crs":"CLI","operator":"Northern","wikipedia":"en:Clifton railway station (Greater Manchester)","ref:tiploc":"CLTN","naptan:AtcoCode":"9100CLTN","public_transport":"station"}},
{"type":"Feature","geometry":{"type":"Point","coordinates":[-0.0883292,51.4541783]},"properties":{"name":"North Dulwich","name:ru":"Норт-Далвич","network":"National Rail","railway":"station","ref:crs":"NDL","wikidata":"Q2105973","wikipedia":"en:North Dulwich railway station","naptan:AtcoCode":"9100NDULWCH","public_transport":"station"}},
{"type":"Feature","geometry":{"type":"Point","coordinates":[-2.5661698,51.4673261]},"properties":{"name":"Stapleton Road","source":"NPE","network":"National Rail","railway":"station","ref:crs":"SRD","wikidata":"Q2537961","wikipedia":"en:Stapleton Road railway station","naptan:AtcoCode":"9100STPLTNR"}},
{"type":"Feature","geometry":{"type":"Point","coordinates":[-2.56417,51.45858]},"properties":{"name":"Lawrence Hill","network":"National Rail","railway":"station","ref:crs":"LWH","wikidata":"Q4785868","wikipedia":"en:Lawrence Hill railway station","addr:street":"Church Road","addr:postcode":"BS5 0AF","naptan:AtcoCode":"9100LAWRNCH"}},
{"type":"Feature","geometry":{"type":"Point","coordinates":[-2.5698672,53.5912146]},"properties":{"air_conditioning":"no","internet_access":"no","name":"Blackrod","naptan:AtcoCode":"9100BLRD","network":"National Rail","operator":"Northern Rail","public_transport":"station","railway":"station","ref:crs":"BLK","ref:tiploc":"BLRD","train":"yes","wheelchair":"yes","wikipedia":"en:Blackrod railway station"}},
{"type":"Feature","geometry":{"type":"Point","coordinates":[-2.3138473,50.701118]},"properties":{"name":"Moreton","network":"National Rail","railway":"station","ref:crs":"MTN","wikidata":"Q2165170","wikipedia":"en:Moreton railway station (Dorset)","source:name":"local knowledge","naptan:AtcoCode":"9100MORETON"}},
{"type":"Feature","geometry":{"type":"Point","coordinates":[-2.2212157,50.6816539]},"properties":{"name":"Wool","network":"National Rail","railway":"station","ref:crs":"WOO","wikidata":"Q2547367","wikipedia":"en:Wool railway station","source:name":"local knowledge","naptan:AtcoCode":"9100WOOL"}},
{"type":"Feature","geometry":{"type":"Point","coordinates":[-2.6127695,53.5390143]},"properties":{"name":"Ince","source":"npe","network":"National Rail","railway":"station","ref:crs":"INC","wikipedia":"en:Ince railway station","naptan:AtcoCode":"9100INCE"}},
{"type":"Feature","geometry":{"type":"Point","coordinates":[-2.9228248,53.4051916]},"properties":{"name":"Wavertree Technology Park","train":"yes","network":"National Rail","railway":"station","ref:crs":"WAV","wikidata":"Q2969859","wikipedia":"en:Wavertree Technology Park railway station","ref:tiploc":"WVRTTEC","wheelchair":"yes","naptan:AtcoCode":"9100WVRTTEC","public_transport":"station"}},
{"type":"Feature","geometry":{"type":"Point","coordinates":[-2.7251202,53.4267142]},"properties":{"name":"Lea Green","network":"National Rail","railway":"station","ref:crs":"LEG","wikipedia":"en:Lea Green railway station","ref:tiploc":"LEGR","wheelchair":"yes","naptan:AtcoCode":"9100LEGR"}},
{"type":"Feature","geometry":{"type":"Point","coordinates":[-2.7594696,53.4366896]},"properties":{"name":"Thatto Heath","source":"npe","network":"National Rail","railway":"station","ref:crs":"THH","wikipedia":"en:Thatto Heath railway station","naptan:AtcoCode":"9100THHT"}},
{"type":"Feature","geometry":{"type":"Point","coordinates":[-2.6720428,53.4879953]},"properties":{"name":"Garswood","source":"npe","network":"National Rail","railway":"station","ref:crs":"GSW","wikipedia":"en:Garswood railway station","naptan:AtcoCode":"9100GARW"}},
{"type":"Feature","geometry":{"type":"Point","coordinates":[-2.6476163,53.4997249]},"properties":{"name":"Bryn","source":"NPE","network":"National Rail","railway":"station","ref:crs":"BYN","wikipedia":"en:Bryn railway station","naptan:AtcoCode":"9100BRYN"}},
{"type":"Feature","geometry":{"type":"Point","coordinates":[-2.3573362,53.4848043]},"properties":{"name":"Patricroft","source":"npe","network":"National Rail","railway":"station","ref:crs":"PAT","wikipedia":"en:Patricroft railway station","ref:tiploc":"PTRCRFT","addr:street":"Green Lane","addr:postcode":"M30 0GX","naptan:AtcoCode":"9100PTRCRFT"}},
{"type":"Feature","geometry":{"type":"Point","coordinates":[-2.2308187,53.3929866]},"properties":{"name":"Gatley","network":"National Rail","railway":"station","ref:crs":"GTY","wikipedia":"en:Gatley railway station","naptan:AtcoCode":"9100GATLEY"}},
{"type":"Feature","geometry":{"type":"Point","coordinates":[-0.0237594,51.5815237]},"properties":{"name":"Walthamstow Queen's Road","network":"London Overground","railway":"station","ref:crs":"WMW","old_name":"Walthamstow","operator":"London Overground","wikidata":"Q2546520","platforms":"2","wikipedia":"en:Walthamstow Queen's Road railway station","source_ref":"http://en.wikipedia.org/wiki/London_Overground#Stations","naptan:AtcoCode":"9100WLTHQRD","public_transport":"station"}},
{"type":"Feature","geometry":{"type":"Point","coordinates":[-0.1819376,50.8363826]},"properties":{"name":"Aldrington","network":"National Rail","railway":"station","ref:crs":"AGT","operator":"Southern","wikidata":"Q2802053","wikipedia":"en:Aldrington railway station","naptan:AtcoCode":"9100ALDTON"}},
{"type":"Feature","geometry":{"type":"Point","coordinates":[-0.2053146,50.8357764]},"properties":{"name":"Portslade","network":"National Rail","railway":"station","ref:crs":"PLD","operator":"Southern","wikidata":"Q2795710","wikipedia":"en:Portslade railway station","naptan:AtcoCode":"9100PSLDAWH"}},
{"type":"Feature","geometry":{"type":"Point","coordinates":[-2.6031073,53.3857577]},"properties":{"name":"Warrington Bank Quay","network":"National Rail","railway":"station","ref:crs":"WBQ","website":"https://www.nationalrail.co.uk/stations_destinations/wbq.aspx","operator":"Avanti West Coast","wikidata":"Q2641986","wikipedia":"en:Warrington Bank Quay railway station","addr:street":"Parker Street","addr:postcode":"WA1 1LW","naptan:AtcoCode":"9100WRGTNBQ","public_transport":"station"}},
{"type":"Feature","geometry":{"type":"Point","coordinates":[-2.3340515,53.4855266]},"properties":{"name":"Eccles","train":"yes","name:lt":"Eklsas","network":"National Rail","railway":"station","ref:crs":"ECC","wikidata":"Q2890052","wikipedia":"en:Eccles railway station","ref:tiploc":"ECCLES","addr:street":"St Mary's Road","addr:postcode":"M30 0DN","naptan:AtcoCode":"9100ECCLES","public_transport":"station"}},
{"type":"Feature","geometry":{"type":"Point","coordinates":[-1.8110345,52.4851563]},"properties":{"name":"Stechford","source":"NPE","network":"National Rail","railway":"station","ref:crs":"SCF","wikidata":"Q2419238","wikipedia":"en:Stechford railway station","naptan:AtcoCode":"9100STECHFD","west_midlands_fare_zone":"3"}},
{"type":"Feature","geometry":{"type":"Point","coordinates":[-1.786031,52.4805217]},"properties":{"name":"Lea Hall","naptan:AtcoCode":"9100LEAHALL","network":"National Rail","railway":"station","ref:crs":"LEH","west_midlands_fare_zone":"3","wikidata":"Q2499943","wikipedia":"en:Lea Hall railway station"}},
{"type":"Feature","geometry":{"type":"Point","coordinates":[-0.1345942,51.4992816]},"properties":{"fare_zone":"1","line":"District;Circle","loc_name":"Saint James Park","name":"St. James's Park","name:ru":"Сент-Джеймс Парк","network":"London Underground","operator":"London Underground","platforms":"2","public_transport":"station","railway":"station","station":"subway","subway":"yes","wheelchair":"no","wikidata":"Q1567095","wikipedia":"en:St James's Park tube station"}},
{"type":"Feature","geometry":{"type":"Point","coordinates":[-1.6997231,52.4286358]},"properties":{"name":"Hampton-in-Arden","naptan:AtcoCode":"9100HMPTNIA","network":"National Rail","public_transport":"station","railway":"station","ref:crs":"HIA","source":"NPE","west_midlands_fare_zone":"5","wikidata":"Q2728174","wikipedia":"en:Hampton-in-Arden railway station"}},
{"type":"Feature","geometry":{"type":"Point","coordinates":[-0.5068108,51.5086086]},"properties":{"name":"Iver","naptan:AtcoCode":"9100IVER","network":"National Rail;TfL Rail","operator":"TfL Rail","public_transport":"station","railway":"station","ref:crs":"IVR","wheelchair":"no","wikidata":"Q6098724","wikipedia":"en:Iver railway station"}},
{"type":"Feature","geometry":{"type":"Point","coordinates":[-0.1249302,51.5013562]},"properties":{"fare_zone":"1","line":"District;Circle;Jubilee","name":"Westminster","name:da":"Westminster Station","name:ru":"Вестминстер","network":"London Underground","public_transport":"station","railway":"station","station":"subway","subway":"yes","wheelchair":"yes","wheelchair:description":"Lifts link all platforms on Jubilee and Circle/District lines. (photos to follow)","wikidata":"Q1135834","wikimedia_commons":"Category:Westminster tube station","wikipedia":"en:Westminster tube station"}},
{"type":"Feature","geometry":{"type":"Point","coordinates":[-1.8545892,52.4210127]},"properties":{"name":"Yardley Wood","source":"NPE","network":"National Rail","railway":"station","ref:crs":"YRD","wikidata":"Q2248035","wikipedia":"en:Yardley Wood railway station","naptan:AtcoCode":"9100YRDLYWD","west_midlands_fare_zone":"3"}},
{"type":"Feature","geometry":{"type":"Point","coordinates":[1.1826445,52.0505454]},"properties":{"name":"Derby Road","network":"National Rail","railway":"station","ref:crs":"DBR","wikidata":"Q2353885","wikipedia":"en:Derby Road railway station","start_date":"1877-05-01","naptan:AtcoCode":"9100DERBYRD"}},
{"type":"Feature","geometry":{"type":"Point","coordinates":[1.3498136,51.9670171]},"properties":{"name":"Felixstowe","naptan:AtcoCode":"9100FLXSTOW","network":"National Rail","public_transport":"station","railway":"station","ref:crs":"FLX","wikidata":"Q3247616","wikipedia":"en:Felixstowe railway station"}},
{"type":"Feature","geometry":{"type":"Point","coordinates":[1.1659683,52.0810736]},"properties":{"name":"Westerfield","naptan:AtcoCode":"9100WSTRFLD","network":"National Rail","public_transport":"station","railway":"station","ref:crs":"WFI","start_date":"1859-06-01","wikidata":"Q1815407","wikipedia":"en:Westerfield railway station"}},
{"type":"Feature","geometry":{"type":"Point","coordinates":[-0.339152,51.3890554]},"properties":{"name":"Thames Ditton","network":"National Rail","railway":"station","ref:crs":"THD","website":"https://www.nationalrail.co.uk/stations/THD/details.html","operator":"South Western Railway","wikidata":"Q2476102","addr:city":"Thames Ditton","wikipedia":"en:Thames Ditton railway station","addr:street":"Station Road","baby_feeding":"no","addr:postcode":"KT7 0PA","internet_access":"no","naptan:AtcoCode":"9100TDITTON","public_transport":"station","wikimedia_commons":"https://commons.wikimedia.org/wiki/File:Thames_Ditton_stn_look_north2.JPG"}},
{"type":"Feature","geometry":{"type":"Point","coordinates":[-2.4668807,51.4439411]},"properties":{"name":"Oldland Common","usage":"tourism","railway":"station","wikidata":"Q7085686"}},
{"type":"Feature","geometry":{"type":"Point","coordinates":[-3.4947321,50.5482036]},"properties":{"name":"Teignmouth","network":"National Rail","railway":"station","ref:crs":"TGM","wikipedia":"en:Teignmouth railway station","wheelchair":"no","electrified":"no","source:name":"local knowledge","naptan:AtcoCode":"9100TEINMTH"}},
{"type":"Feature","geometry":{"type":"Point","coordinates":[-0.1340747,51.3221141]},"properties":{"name":"Coulsdon Town","tracks":"2","network":"National Rail","railway":"station","ref:crs":"CDN","old_name":"Smitham","wikidata":"Q2136840","wikipedia":"en:Coulsdon Town railway station","naptan:AtcoCode":"9100SMITHAM","public_transport":"station"}},
{"type":"Feature","geometry":{"type":"Point","coordinates":[-0.1540561,51.3189347]},"properties":{"name":"Woodmansterne","network":"National Rail","railway":"station","ref:crs":"WME","wikidata":"Q2737664","wikipedia":"en:Woodmansterne railway station","naptan:AtcoCode":"9100WDMNSTR","public_transport":"station"}},
{"type":"Feature","geometry":{"type":"Point","coordinates":[-0.2110128,51.2947257]},"properties":{"name":"Kingswood","network":"National Rail","railway":"station","ref:crs":"KND","wikidata":"Q2192379","wikipedia":"en:Kingswood railway station","naptan:AtcoCode":"9100KGWD","public_transport":"station"}},
{"type":"Feature","geometry":{"type":"Point","coordinates":[-0.1234118,51.3311273]},"properties":{"name":"Reedham","network":"National Rail","railway":"station","ref:crs":"RHM","wikidata":"Q1972220","wikipedia":"en:Reedham railway station (London)","postal_code":"CR8 4DJ","naptan:AtcoCode":"9100REEDHMS","public_transport":"station"}},
{"type":"Feature","geometry":{"type":"Point","coordinates":[1.4181588,52.6233603]},"properties":{"name":"Brundall Gardens","source":"NPE","network":"National Rail","railway":"station","ref:crs":"BGA","wikidata":"Q2262602","wikipedia":"en:Brundall Gardens railway station","naptan:AtcoCode":"9100BRUNDLG"}},
{"type":"Feature","geometry":{"type":"Point","coordinates":[-2.4958996,51.4180534]},"properties":{"name":"Keynsham","network":"National Rail","railway":"station","ref:crs":"KYN","wikidata":"Q2658052","wikipedia":"en:Keynsham railway station","naptan:AtcoCode":"9100KEYNSHM"}},
{"type":"Feature","geometry":{"type":"Point","coordinates":[-2.6111568,51.4644529]},"properties":{"name":"Clifton Down","network":"National Rail","railway":"station","ref:crs":"CFN","wikidata":"Q2462275","wikipedia":"en:Clifton Down railway station","wheelchair":"yes","naptan:AtcoCode":"9100CLFDOWN"}},
{"type":"Feature","geometry":{"type":"Point","coordinates":[-0.4676506,52.1293588]},"properties":{"name":"Bedford St Johns","network":"National Rail","railway":"station","ref:crs":"BSJ","wikidata":"Q2567167","wikipedia":"en:Bedford St Johns railway station","naptan:AtcoCode":"9100BESJOHN","wikimedia_commons":"Category:Bedford St Johns railway station"}},
{"type":"Feature","geometry":{"type":"Point","coordinates":[-3.5389661,50.7171556]},"properties":{"name":"Exeter St Thomas","network":"National Rail","railway":"station","ref:crs":"EXT","wikidata":"Q1928272","wikipedia":"en:Exeter St Thomas railway station","wheelchair":"no","electrified":"no","naptan:AtcoCode":"9100EXETRST"}},
{"type":"Feature","geometry":{"type":"Point","coordinates":[-1.1025399,51.0874683]},"properties":{"name":"Ropley","usage":"tourism","railway":"station","website":"https://www.watercressline.co.uk/","operator":"The Mid Hants Railway 'Watercress Line'","wikidata":"Q7366762"}},
{"type":"Feature","geometry":{"type":"Point","coordinates":[-2.3802859,51.379211]},"properties":{"name":"Oldfield Park","network":"National Rail","railway":"station","ref:crs":"OLF","wikidata":"Q2275914","wikipedia":"en:Oldfield Park railway station","wheelchair":"yes","naptan:AtcoCode":"9100OLDFLDP"}},
{"type":"Feature","geometry":{"type":"Point","coordinates":[1.4386558,52.6196558]},"properties":{"name":"Brundall","network":"National Rail","railway":"station","ref:crs":"BDA","wikidata":"Q282288","wikipedia":"en:Brundall railway station","naptan:AtcoCode":"9100BRUNDAL"}},
{"type":"Feature","geometry":{"type":"Point","coordinates":[0.9054279,51.8865086]},"properties":{"name":"Colchester Town","naptan:AtcoCode":"9100CLCHRTN","network":"National Rail","old_name":"St Botolph's","operator":"Abellio Greater Anglia","platforms":"1","public_transport":"station","railway":"station","ref:crs":"CET","wikidata":"Q4489756","wikipedia":"en:Colchester Town railway station"}},
{"type":"Feature","geometry":{"type":"Point","coordinates":[-0.1147325,51.4626818]},"properties":{"fare_zone":"2","line":"Victoria","name":"Brixton","name:ru":"Брикстон","network":"London Underground","operator":"London Underground","platforms":"2","public_transport":"station","railway":"station","station":"subway","subway":"yes","wheelchair":"yes","wikimedia_commons":"Category:Brixton tube station","wikipedia":"en:Brixton tube station"}},
{"type":"Feature","geometry":{"type":"Point","coordinates":[-1.5915827,53.7496185]},"properties":{"name":"Morley","source":"gpx","network":"National Rail","railway":"station","ref:crs":"MLY","old_name":"Morley Low","wikidata":"Q2079875","platforms":"2","wikipedia":"en:Morley railway station","naptan:AtcoCode":"9100MRLY"}},
{"type":"Feature","geometry":{"type":"Point","coordinates":[-3.066305,55.0007556]},"properties":{"name":"Gretna Green","train":"yes","source":"NPE","network":"National Rail","railway":"station","ref:crs":"GEA","operator":"ScotRail","wikidata":"Q1881671","wikipedia":"en:Gretna Green railway station","naptan:AtcoCode":"9100GRETGRN","public_transport":"station"}},
{"type":"Feature","geometry":{"type":"Point","coordinates":[-0.4094509,52.5610781]},"properties":{"name":"Yarwell Junction (NVR)","public_transport":"station","railway":"station","tourism":"heritage_railway","usage":"tourism","wikidata":"Q8049606","wikipedia":"en:Yarwell Junction railway station"}},
{"type":"Feature","geometry":{"type":"Point","coordinates":[-2.9121844,53.358688]},"properties":{"name":"Cressington","network":"National Rail","railway":"station","ref:crs":"CSG","wikidata":"Q2465226","wikipedia":"en:Cressington railway station","naptan:AtcoCode":"9100CRSNGTN"}},
{"type":"Feature","geometry":{"type":"Point","coordinates":[-2.9812395,53.3075769]},"properties":{"name":"Eastham Rake","network":"National Rail","railway":"station","ref:crs":"ERA","operator":"Merseyrail","wikipedia":"en:Eastham Rake railway station","wheelchair":"limited","internet_access":"no","naptan:AtcoCode":"9100ESTHRAK","public_transport":"station"}},
{"type":"Feature","geometry":{"type":"Point","coordinates":[-2.3009344,51.3419775]},"properties":{"name":"Freshford","network":"National Rail","railway":"station","ref:crs":"FFD","wikidata":"Q1915042","wikipedia":"en:Freshford railway station","naptan:AtcoCode":"9100FRESHFD","public_transport":"station"}},
{"type":"Feature","geometry":{"type":"Point","coordinates":[-1.1598113,52.7042808]},"properties":{"addr:city":"Rothley","addr:housename":"Rothley Railway Station","addr:postcode":"LE7 7LD","name":"Rothley","public_transport":"station","railway":"station","source":"NPE","train":"yes","usage":"tourism","wikidata":"Q7370489","wikipedia":"en:Rothley railway station"}},
{"type":"Feature","geometry":{"type":"Point","coordinates":[-2.3157744,53.6768699]},"properties":{"name":"Irwell Vale","usage":"tourism","railway":"station"}},
{"type":"Feature","geometry":{"type":"Point","coordinates":[-2.2918033,53.698586]},"properties":{"name":"Rawtenstall","train":"yes","usage":"tourism","railway":"station","operator":"East Lancashire Railway Preservation Society","public_transport":"station"}},
{"type":"Feature","geometry":{"type":"Point","coordinates":[-2.3134126,53.6279534]},"properties":{"name":"Summerseat","usage":"tourism","railway":"station"}},
{"type":"Feature","geometry":{"type":"Point","coordinates":[-2.3032556,53.6113055]},"properties":{"name":"Burrs Country Park Halt","note":"Opened to the public on Jan 1st 2017","train":"yes","usage":"tourism","network":"East Lancashire Railway","railway":"station","operator":"East Lancashire Railway","public_transport":"station"}},
{"type":"Feature","geometry":{"type":"Point","coordinates":[-2.3003018,53.5929094]},