{"type":"FeatureCollection","features":[
{"type":"Feature","geometry":{"type":"Point","coordinates":[-0.8554051,52.9521534]},"properties":{"name":"Elton and Orston","source":"NPE","network":"National Rail","railway":"station","ref:crs":"ELO","wikidata":"Q2585835","wikipedia":"en:Elton and Orston railway station","naptan:AtcoCode":"9100ELTON","public_transport":"station"}},
{"type":"Feature","geometry":{"type":"Point","coordinates":[-1.1822851,52.8436455]},"properties":{"name":"Rushcliffe Halt","public_transport":"station","railway":"station","train":"yes","usage":"tourism","wikidata":"Q7380777","wikipedia":"en:Rushcliffe Halt"}},
{"type":"Feature","geometry":{"type":"Point","coordinates":[-1.2218222,53.069977]},"properties":{"name":"Newstead","train":"yes","source":"NPE","network":"National Rail","railway":"station","ref:crs":"NSD","wikidata":"Q2700960","wikipedia":"en:Newstead railway station","naptan:AtcoCode":"9100NWSTEAD","public_transport":"station"}},
{"type":"Feature","geometry":{"type":"Point","coordinates":[-1.1959496,53.0384983]},"properties":{"name":"Hucknall","train":"yes","source":"knowledge","network":"National Rail","railway":"station","ref:crs":"HKN","wikidata":"Q2393008","wikipedia":"en:Hucknall station","naptan:AtcoCode":"9100HUCKNAL","public_transport":"station"}},
{"type":"Feature","geometry":{"type":"Point","coordinates":[-1.2017516,53.1634635]},"properties":{"name":"Mansfield Woodhouse","train":"yes","network":"National Rail","railway":"station","ref:crs":"MSW","operator":"East Midlands Railway","wikidata":"Q2656994","platforms":"3","wikipedia":"en:Mansfield Woodhouse railway station","naptan:AtcoCode":"9100MFLDWSE","source:operator":"local_knowledge","public_transport":"station"}},
{"type":"Feature","geometry":{"type":"Point","coordinates":[-1.1479578,52.8845394]},"properties":{"name":"Ruddington Fields","public_transport":"station","railway":"station","train":"yes","usage":"tourism"}},
{"type":"Feature","geometry":{"type":"Point","coordinates":[-1.1449555,52.9473037]},"properties":{"addr:city":"Nottingham","addr:postcode":"NG2 3AQ","addr:street":"Carrington Street","alt_name":"Nottingham Midland","fhrs:id":"218710","name":"Nottingham","naptan:AtcoCode":"9100NTNG","network":"National Rail","postal_code":"NG2 3AQ","public_transport":"station","railway":"station","ref:crs":"NOT","source":"Local Knowledge","source:addr":"NCC Open Data planning","train":"yes","wheelchair":"yes","wikidata":"Q1988621","wikipedia":"en:Nottingham station"}},
{"type":"Feature","geometry":{"type":"Point","coordinates":[-1.262883,52.862275]},"properties":{"name":"East Midlands Parkway","train":"yes","network":"National Rail","railway":"station","ref:crs":"EMD","operator":"East Midlands Railway","wikidata":"Q5328988","wikipedia":"en:East Midlands Parkway railway station","addr:postcode":"NG11 0EE","naptan:AtcoCode":"9100EMPKWAY","public_transport":"station"}},
{"type":"Feature","geometry":{"type":"Point","coordinates":[-0.750266,53.1439832]},"properties":{"name":"Collingham","source":"NPE","network":"National Rail","railway":"station","ref:crs":"CLM","operator":"East Midlands Railway","wikidata":"Q2369236","wikipedia":"en:Collingham railway station","naptan:AtcoCode":"9100CLHM","public_transport":"station"}},
{"type":"Feature","geometry":{"type":"Point","coordinates":[-0.9443313,53.3139351]},"properties":{"name":"Retford Low Level","source":"wikipedia","network":"National Rail","railway":"station","operator":"East Coast","wikidata":"Q5259666","ref:crs_2":"RET","wikipedia":"en:Retford railway station","naptan:AtcoCode":"9100RTFDLL","public_transport":"station"}},
{"type":"Feature","geometry":{"type":"Point","coordinates":[-1.1228579,53.3115968]},"properties":{"name":"Worksop","train":"yes","source":"wikipedia","network":"National Rail","railway":"station","ref:crs":"WRK","operator":"Northern Rail","wikidata":"Q2958045","wikipedia":"en:Worksop railway station","naptan:AtcoCode":"9100WORKSOP","public_transport":"station"}},
{"type":"Feature","geometry":{"type":"Point","coordinates":[-1.1683224,53.3248638]},"properties":{"name":"Shireoaks","train":"yes","source":"NPE","network":"National Rail","railway":"station","ref:crs":"SRO","operator":"Northern Rail","wikidata":"Q2358910","wikipedia":"en:Shireoaks railway station","naptan:AtcoCode":"9100SHRKSKS","public_transport":"station"}},
{"type":"Feature","geometry":{"type":"Point","coordinates":[-0.8984194,52.9515525]},"properties":{"name":"Aslockton","naptan:AtcoCode":"9100ASLCKTN","network":"National Rail","public_transport":"station","railway":"station","ref:crs":"ALK","source":"NPE","train":"yes","wikidata":"Q2261645","wikipedia":"en:Aslockton railway station"}},
{"type":"Feature","geometry":{"type":"Point","coordinates":[-0.951332,52.9542089]},"properties":{"name":"Bingham","train":"yes","network":"National Rail","railway":"station","ref:crs":"BIN","wikidata":"Q4914224","wikipedia":"en:Bingham railway station","naptan:AtcoCode":"9100BINGHAM","public_transport":"station"}},
{"type":"Feature","geometry":{"type":"Point","coordinates":[-1.2532566,53.0999875]},"properties":{"name":"Kirkby-in-Ashfield","note":"Note the realignment after the Robin Hood line extension re-opened","train":"yes","network":"National Rail","railway":"station","ref:crs":"KKB","wikidata":"Q6415580","wikipedia":"en:Kirkby-in-Ashfield railway station","naptan:AtcoCode":"9100KRKYCEN","public_transport":"station"}},
{"type":"Feature","geometry":{"type":"Point","coordinates":[-1.2026041,53.2041591]},"properties":{"name":"Shirebrook","train":"yes","network":"National Rail","railway":"station","ref:crs":"SHB","wikidata":"Q2412758","wikipedia":"en:Shirebrook railway station","naptan:AtcoCode":"9100SHRBROK","public_transport":"station"}},
{"type":"Feature","geometry":{"type":"Point","coordinates":[-1.2455485,53.1141408]},"properties":{"name":"Sutton Parkway","note":"immediately after rejoining the old alignment; it's between two bridges, it's also miles away from its namesake","train":"yes","network":"National Rail","railway":"station","ref:crs":"SPK","wikidata":"Q1984369","wikipedia":"en:Sutton Parkway railway station","naptan:AtcoCode":"9100STTNPWY","public_transport":"station"}},
{"type":"Feature","geometry":{"type":"Point","coordinates":[-1.1317432,53.0630002]},"properties":{"usage":"tourism","railway":"station"}},
{"type":"Feature","geometry":{"type":"Point","coordinates":[-0.7994939,53.0813745]},"properties":{"name":"Newark North Gate","source":"NPE","network":"National Rail","railway":"station","ref:crs":"NNG","wikidata":"Q3246476","wikipedia":"en:Newark North Gate railway station","naptan:AtcoCode":"9100NEWANG","public_transport":"station"}},
{"type":"Feature","geometry":{"type":"Point","coordinates":[-1.2075065,52.9207938]},"properties":{"name":"Beeston","layer":"2","network":"National Rail","railway":"station","ref:crs":"BEE","wikidata":"Q3299120","wikipedia":"en:Beeston railway station","wheelchair":"yes","is_in:county":"Nottinghamshire","naptan:AtcoCode":"9100BESTON"}},
{"type":"Feature","geometry":{"type":"Point","coordinates":[-0.9481044,53.3151982]},"properties":{"name":"Retford","train":"yes","source":"wikipedia","network":"National Rail","railway":"station","ref:crs":"RET","operator":"East Coast","wikidata":"Q5259666","wikipedia":"en:Retford railway station","naptan:AtcoCode":"9100RTFD","public_transport":"station"}},
{"type":"Feature","geometry":{"type":"Point","coordinates":[-1.0793598,52.9614057]},"properties":{"name":"Netherfield","train":"yes","network":"National Rail","railway":"station","ref:crs":"NET","operator":"East Midlands Railway","wikidata":"Q3308001","wikipedia":"en:Netherfield railway station","postal_code":"NG4 2JB","naptan:AtcoCode":"9100NTHRFLD","public_transport":"station"}},
{"type":"Feature","geometry":{"type":"Point","coordinates":[-0.9001231,53.0651443]},"properties":{"name":"Rolleston","source":"NPE","network":"National Rail","railway":"station","ref:crs":"ROL","old_name":"Rolleston Junction","wikidata":"Q2704279","wikipedia":"en:Rolleston railway station","naptan:AtcoCode":"9100ROLSTN"}},
{"type":"Feature","geometry":{"type":"Point","coordinates":[-0.8131753,53.0802549]},"properties":{"name":"Newark Castle","source":"NPE","network":"National Rail","railway":"station","ref:crs":"NCT","wikidata":"Q4800289","wikipedia":"en:Newark Castle railway station","naptan:AtcoCode":"9100NWRKCAS","public_transport":"station"}},
{"type":"Feature","geometry":{"type":"Point","coordinates":[-0.9121634,53.0604781]},"properties":{"name":"Fiskerton","source":"NPE","network":"National Rail","railway":"station","ref:crs":"FSK","wikidata":"Q606903","wikipedia":"en:Fiskerton railway station","naptan:AtcoCode":"9100FISKRTN"}},
{"type":"Feature","geometry":{"type":"Point","coordinates":[-0.9435609,53.0414796]},"properties":{"name":"Bleasby","source":"NPE","network":"National Rail","railway":"station","ref:crs":"BSB","wikidata":"Q2460860","wikipedia":"en:Bleasby railway station","naptan:AtcoCode":"9100BLEASBY"}},
{"type":"Feature","geometry":{"type":"Point","coordinates":[-0.9618535,53.0292518]},"properties":{"name":"Thurgarton","source":"NPE","network":"National Rail","railway":"station","ref:crs":"THU","wikidata":"Q2333610","wikipedia":"en:Thurgarton railway station","naptan:AtcoCode":"9100THRGRTN"}},
{"type":"Feature","geometry":{"type":"Point","coordinates":[-0.9982248,53.0064332]},"properties":{"name":"Lowdham","source":"NPE","network":"National Rail","railway":"station","ref:crs":"LOW","wikidata":"Q6693095","wikipedia":"en:Lowdham railway station","naptan:AtcoCode":"9100LOWDHAM"}},
{"type":"Feature","geometry":{"type":"Point","coordinates":[-1.0787671,52.9650524]},"properties":{"name":"Carlton","train":"yes","network":"National Rail","railway":"station","ref:crs":"CTO","operator":"East Midlands Railway","wikidata":"Q2051170","wikipedia":"en:Carlton railway station","postal_code":"NG4 2FD","naptan:AtcoCode":"9100CRTN","public_transport":"station"}},
{"type":"Feature","geometry":{"type":"Point","coordinates":[-1.0412134,52.9832944]},"properties":{"name":"Burton Joyce","train":"yes","network":"National Rail","railway":"station","ref:crs":"BUJ","operator":"East Midlands Railway","wikidata":"Q2608297","wikipedia":"en:Burton Joyce railway station","naptan:AtcoCode":"9100BRTJYC","public_transport":"station"}},
{"type":"Feature","geometry":{"type":"Point","coordinates":[-1.2311523,52.9064132]},"properties":{"name":"Attenborough","network":"National Rail","railway":"station","ref:crs":"ATB","wikidata":"Q2098552","wikipedia":"en:Attenborough railway station","naptan:AtcoCode":"9100ATNBRO"}},
{"type":"Feature","geometry":{"type":"Point","coordinates":[-1.0369716,52.9487898]},"properties":{"name":"Radcliffe","source":"NPE","network":"National Rail","railway":"station","ref:crs":"RDF","alt_name":"Radcliffe-on-Trent","operator":"East Midlands Railway","wikidata":"Q1882427","wikipedia":"en:Radcliffe railway station","naptan:AtcoCode":"9100RADNOT"}},
{"type":"Feature","geometry":{"type":"Point","coordinates":[-1.1985012,53.142079]},"properties":{"name":"Mansfield","train":"yes","network":"National Rail","railway":"station","ref:crs":"MFT","wikidata":"Q13528239","wikipedia":"en:Mansfield railway station (England)","naptan:AtcoCode":"9100MFLDTWN","public_transport":"station"}},
{"type":"Feature","geometry":{"type":"Point","coordinates":[-1.2950397,52.9790983]},"properties":{"name":"Ilkeston","network":"National Rail","railway":"station","ref:crs":"ILN","wikidata":"Q15228309","wikipedia":"en:Ilkeston railway station","naptan:AtcoCode":"9100ILKES","public_transport":"station"}},
{"type":"Feature","geometry":{"type":"Point","coordinates":[-1.1953957,52.9993437]},"properties":{"name":"Bulwell","train":"yes","network":"National Rail","railway":"station","ref:crs":"BLW","wikidata":"Q1828548","wikipedia":"en:Bulwell station","naptan:AtcoCode":"9100BULWELL","public_transport":"station"}},
{"type":"Feature","geometry":{"type":"Point","coordinates":[-1.0654981,53.1083163]},"properties":{"usage":"tourism","railway":"station"}}
]}
